stop_id,stop_name,latitude,longitude,zone_id,location_type,parent_station,wheelchair_boarding,platform_code,ObjectId,GlobalID,x,y
U7530Z2,Dolní nádraží,49.183292,16.615558,100,0,U7530N1,2\,,1,3298db20-d9b0-49ac-9704-fc70e0918f17,1849635.4558061,6306019.63237414
U1011Z2,Autobusové nádraží,49.186417,16.617622,100,0,U1011N2,2\,,2,68f78079-ac24-41c9-9d03-912bb6bdcd1c,1849865.2192351,6306551.85758857
U19012Z1,"Hodonín, STS",48.870733,17.116435,900,0,U19012N147,2\,,3,8e763c9c-41a7-406b-b129-1f9ce1bbf764,1905392.82839617,6252955.88447755
U1146Z33,Hlavní nádraží,49.19185,16.613617,100,0,U1146N3,2\,13,4,514f47ce-9e97-4ac5-9b85-d3dbe56ad2d0,1849419.38467447,6307477.243083
U1146Z31,Hlavní nádraží,49.191815,16.613991,100,0,U1146N3,2\,10,5,d42fd377-8ff2-416d-8e7a-9380359f0b36,1849461.01816403,6307471.28131984
U19002Z1,"Hodonín, Brněnská",48.862476,17.118758,900,0,U19002N146,2\,,6,c3a4f5c0-26d6-4661-90e7-daa437f04cd5,1905651.42357328,6251558.58290092
U7530Z1,Dolní nádraží,49.183149,16.615201,100,0,U7530N1,2\,,7,c3c24fc4-e19b-4c63-9277-177e54b67548,1849595.71474789,6305995.27855253
U15775Z2,"Hevlín, škola",48.751285,16.380187,570,0,U15775N4,2\,,8,9fd43094-867d-487f-8b9a-21b37775b978,1823434.0759386,6232764.5509663
U1696Z12,ÚAN Zvonařka,49.185364,16.616151,100,0,U1696N32,2\,26,9,a7845a23-f4b6-4668-b525-97feac5257c7,1849701.46826414,6306372.51522554
U16348Z1,"Klobouky u Brna, samoobsluha",48.995079,16.867518,640,0,U16348N160,2\,,10,809a9be4-3411-4a2f-9dda-085e2cebd7f0,1877683.51470638,6274026.44451225
U15773Z2,"Hevlín, cihelna",48.761387,16.38346,570,0,U15773N5,2\,,11,e6cabbf5-a676-4d14-afbd-8d0c7482d76d,1823798.42463197,6234470.3194758
U16343Z1,"Klobouky u Brna, Nádražní",48.994411,16.879339,640,0,U16343N159,2\,,12,103b893d-08c9-42f8-9432-42b948df4477,1878999.42240704,6273913.11084569
U15627Z2,Hrabětice,48.796862,16.395222,560,0,U15627N6,2\,,13,039a707e-1130-413f-82e1-7c40fdf2c3ee,1825107.76448268,6240463.15341618
U1696Z15,ÚAN Zvonařka,49.185475,16.617567,100,0,U1696N32,2\,4,14,1aa37e19-ccd9-41c6-af2e-829488b0cde1,1849859.09666311,6306391.42008101
U17337Z1,"Rousínov, rozc. k žel. st.",49.200012,16.873039,730,0,U17337N230,2\,,15,d88b74c1-1c09-4519-8fb4-05c172081f72,1878298.10961505,6308867.64145093
U15640Z2,"Šanov, u mostu",48.799235,16.386832,560,0,U15640N7,2\,,16,0666ddcd-50a7-4f87-88cd-c85e88fe5237,1824173.79395492,6240864.17831588
U1807Z1,Železniční,49.18274,16.619609,100,0,U1807N314,2\,,17,978cc180-07e1-47f1-931f-921ab1a4cc83,1850086.41106331,6305925.62360508
U15639Z2,"Šanov, požární zbrojnice",48.802143,16.373927,560,0,U15639N8,2\,,18,44c4e7a4-f929-4a8e-be8b-662b70796ffe,1822737.21592623,6241355.6413584
U15637Z2,"Hrušovany nad Jevišovkou, žel. st.",48.810465,16.38336,560,0,U15637N9,2\,,19,32fd8616-515e-46c3-af70-e44cd53c42e4,1823787.29268289,6242762.24843626
U1148Z1,Hněvkovského,49.169824,16.625975,101,0,U1148N315,1\,,20,44fd8639-539a-4184-9298-718742d1bbdc,1850795.0709417,6303726.25390909
U17335Z1,"Rousínov, autobusová stanice",49.202947,16.88534,730,0,U17335N211,2\,8,21,19297728-9577-447d-9f8b-2b485f9b39f1,1879667.45067129,6309367.67539233
U15628Z2,"Hrabětice, rozcestí",48.811255,16.39406,560,0,U15628N10,2\,,22,ef34a839-5d0f-4ddd-a95c-2b639901160b,1824978.41123437,6242895.78851763
U1511Z1,Popelova,49.156542,16.646787,101,0,U1511N316,2\,,23,ebf99781-3687-4c3a-bd49-d069de7254ad,1853111.85218409,6301465.1591035
U17423Z2,"Vyškov, Autobusové nádraží",49.275878,16.99145,740,0,U17423N203,2\,2,24,213d3efc-26fc-4947-af1f-0f97a7a1c49a,1891479.56183937,6321802.42370422
U15634Z2,"Hrušovany nad Jevišovkou, statek",48.817402,16.397767,560,0,U15634N11,2\,,25,17947f64-e042-4f40-9bd4-cefe85ff444a,1825391.07258675,6243934.93747003
U1118Z1,Glocova,49.151074,16.659518,101,0,U1118N317,2\,,26,afbf04d1-50bd-4e74-8784-417328c66443,1854529.06062138,6300534.47650336
U17446Z1,"Vyškov, železniční stanice",49.278115,16.992202,740,0,U17446N231,2\,,27,bdc96f7b-b902-4e9a-9316-46c7a9de1bc6,1891563.27409644,6322184.12305751
U15631Z2,"Hrušovany nad Jevišovkou, lékárna",48.829121,16.399494,560,0,U15631N12,2\,,28,0dadbe8f-d4c5-4188-9b17-0c3487266a04,1825583.32134735,6245916.38485242
U1538Z1,Revoluční,49.149426,16.663085,101,0,U1538N318,2\,,29,ac4f949e-2571-4b69-8cee-882bbc216d1a,1854926.13724503,6300253.99830817
U17427Z1,"Vyškov, Dělnický dům",49.280365,16.995232,740,0,U17427N232,2\,,30,03885136-6b97-413c-bf0e-656f0dbeec82,1891900.57215355,6322568.05806525
U15632Z1,"Hrušovany nad Jevišovkou, Lidická, VÚPP",48.831472,16.401928,560,0,U15632N13,2\,,31,036cec60-2c04-409a-8048-dea0f3c48f08,1825854.27298794,6246313.94751061
U1131Z1,Hanácká,49.146954,16.667509,101,0,U1131N172,2\,,32,8571d37f-a28e-4f86-924a-60b0186a2bc1,1855418.6146723,6299833.29850768
U17440Z1,"Vyškov, Rostex",49.283558,16.990612,740,0,U17440N233,2\,,33,a3b913e7-8abd-4c76-9d23-c15c229c9654,1891386.27610608,6323112.93456901
U15635Z2,"Hrušovany nad Jevišovkou, STS",48.842858,16.403833,560,0,U15635N14,2\,,34,edc8f4a7-d890-42ef-9094-7b415f400554,1826066.3366179,6248239.62555827
U1186Z1,Chrlická,49.144276,16.66513,101,0,U1186N319,1\,,35,9e6a08bd-69a2-4005-883f-6beb9452f6a9,1855153.78560371,6299377.56407497
U17431Z1,"Vyškov, hotel Dukla",49.28524,16.986955,740,0,U17431N234,2\,,36,c4735f45-716a-4e69-95a9-11c90b7494a5,1890979.18072825,6323399.97734462
U15553Z2,"Litobratřice, u konírny",48.883577,16.400955,550,0,U15553N15,2\,,37,49d64209-8956-4a59-bab3-13862d137be7,1825745.95912339,6255129.88550742
U1592Z3,Sokolnická,49.131372,16.684457,101,0,U1592N320,2\,,38,a9787e2c-e205-4ec2-8a5b-63b1bbc54447,1857305.25740227,6297181.94319336
U17426Z1,"Vyškov, Dědice, u hřbitova",49.28952,16.981548,740,0,U17426N235,2\,,39,9bc01131-e3ac-4355-b363-5b6d2a661754,1890377.27624153,6324130.42761716
U15554Z2,"Litobratřice, obecní úřad",48.887875,16.403302,550,0,U15554N16,2\,,40,860b60bd-ba31-436b-80ed-44da8a06895a,1826007.22596829,6255857.498225
U16173Z1,"Sokolnice, Brněnská",49.114191,16.714345,610,0,U16173N321,2\,,41,f2cfff14-dac4-43e0-ae6a-224d0564509f,1860632.3743431,6294259.47583374
U17424Z1,"Vyškov, Dědice, nám. Svobody",49.29417,16.979015,740,0,U17424N236,2\,,42,f0efeb0f-7fe8-410b-9802-c00cda5a710d,1890095.30397135,6324924.09616924
U15552Z2,Jiřice u Miroslavi,48.920697,16.39138,550,0,U15552N17,2\,,43,cf127d20-5927-4cad-af6b-35740b456246,1824680.07499905,6261416.03100691
U16145Z1,"Sokolnice, obecní úřad",49.113855,16.722054,610,0,U16145N322,2\,,44,e08e2cf4-c913-44a0-aff3-37d12fc57dd0,1861490.53629762,6294202.33273171
U17445Z1,"Vyškov, Dědice, kasárna",49.300943,16.98151,740,0,U17445N237,2\,,45,d7b5ac9c-c765-446a-abcd-49fa8c731be0,1890373.04610088,6326080.25531301
U15430Z2,"Troskotovice, prodejna",48.918625,16.432717,540,0,U15430N18,2\,,46,c235d12c-8125-431e-a844-1062c8450fb1,1829281.68878997,6261065.02179926
U16149Z1,"Sokolnice, železniční stanice",49.108393,16.732841,610,0,U16149N323,2\,1,47,d88e9c2b-d19a-47aa-a86d-10e312520a41,1862691.33964481,6293273.47146632
U15431Z2,"Troskotovice, škola",48.918848,16.436795,540,0,U15431N19,2\,,48,e2e3963a-96f5-4abd-a227-a773f1929a6b,1829735.64967343,6261102.79863541
U17425Z1,"Vyškov, Dědice, rozc. Opatovice",49.29812,16.973313,740,0,U17425N238,2\,,49,ee689f11-a73b-4692-8e6e-38195d546284,1889460.56023485,6325598.34654992
U16157Z1,"Újezd u Brna, Revoluční",49.106258,16.749987,610,0,U16157N324,2\,,50,48720092-a078-40b0-9fa1-b3aef20b5870,1864600.02363395,6292910.42368555
U17430Z1,"Vyškov, Hamiltony",49.305332,16.969203,740,0,U17430N239,2\,,51,136996a1-6069-4e15-bc0c-04764e65c567,1889003.03712769,6326829.54767507
U17433Z1,"Vyškov, Lhota, u školy",49.309775,16.955875,740,0,U17433N240,2\,,52,92877994-eb5c-418c-a61a-dbe54baf3462,1887519.3709544,6327588.12692863
U17432Z1,"Vyškov, Lhota",49.311585,16.948827,740,0,U17432N241,2\,,53,d0af280d-421d-4f30-b871-5d8b077b663d,1886734.79118329,6327897.17837691
U17439Z1,"Vyškov, Pařezovice, rozcestí",49.320457,16.935295,740,0,U17439N242,2\,,54,d4cd44aa-19af-4d5e-98b9-2ae1a8739513,1885228.41583387,6329412.20698005
U17441Z1,"Vyškov, Rychtářov",49.327197,16.919003,740,0,U17441N243,2\,,55,3fbb24cd-4190-4175-8d1a-57890bcc1747,1883414.79868987,6330563.34668293
U17443Z1,"Vyškov, Rychtářov, točna",49.330324,16.912508,740,0,U17443N244,2\,,56,2ac3d611-d602-46b3-9931-fb329b07e311,1882691.77859717,6331097.46753531
U17443Z2,"Vyškov, Rychtářov, točna",49.330324,16.912508,740,0,U17443N244,2\,,57,8104dff2-0536-4c38-8da6-ea4a9657e316,1882691.77859717,6331097.46753531
U17441Z2,"Vyškov, Rychtářov",49.327197,16.919003,740,0,U17441N243,2\,,58,9d16576b-10a5-4867-bd30-8ccbb2d2fa3d,1883414.79868987,6330563.34668293
U17439Z2,"Vyškov, Pařezovice, rozcestí",49.320483,16.93506,740,0,U17439N242,2\,,59,cae96f47-c9f6-4617-b5b8-c554791d86aa,1885202.25575354,6329416.64727559
U17432Z2,"Vyškov, Lhota",49.311497,16.948407,740,0,U17432N241,2\,,60,7baf701d-5d87-4115-8c97-b8e1b12e4e70,1886688.03699715,6327882.15240853
U17433Z2,"Vyškov, Lhota, u školy",49.309547,16.956648,740,0,U17433N240,2\,,61,27831ded-4f7c-4dfd-a2c1-97cca45f7eed,1887605.42092078,6327549.19749618
U17430Z2,"Vyškov, Hamiltony",49.305315,16.969123,740,0,U17430N239,2\,,62,41cf3fb0-53d4-4d76-8dbf-8e908da720e4,1888994.13156843,6326826.64529748
U17425Z2,"Vyškov, Dědice, rozc. Opatovice",49.298063,16.973245,740,0,U17425N238,2\,,63,f70c8150-767d-402f-8fc2-bbee4e1f5ca0,1889452.99050948,6325588.61647663
U17424Z2,"Vyškov, Dědice, nám. Svobody",49.293627,16.97917,740,0,U17424N236,2\,,64,972c12ea-85a3-4cdb-ab7e-a51463c93818,1890112.55849243,6324831.41230329
U17426Z2,"Vyškov, Dědice, u hřbitova",49.288997,16.981807,740,0,U17426N235,2\,,65,0c75aa88-c6c2-440c-9263-986d6bc33f29,1890406.10798965,6324041.16592364
U17431Z2,"Vyškov, hotel Dukla",49.285237,16.986958,740,0,U17431N234,2\,,66,06d216e6-947a-4f23-9195-6814503fc5fe,1890979.51468673,6323399.465369
U17440Z2,"Vyškov, Rostex",49.283392,16.99069,740,0,U17440N233,2\,,67,ecd9049b-dc96-4a11-8d76-22b9591300ec,1891394.95902637,6323084.60626468
U17427Z2,"Vyškov, Dělnický dům",49.280487,16.994993,740,0,U17427N232,2\,,68,1680e095-791e-4a3d-9716-6067f3343851,1891873.96679525,6322588.87637519
U17446Z2,"Vyškov, železniční stanice",49.278112,16.992207,740,0,U17446N231,2\,,69,49c3412a-30f9-4193-a4bc-2fda1052a267,1891563.8306939,6322183.61115586
U17442Z1,"Vyškov, Rychtářov, Rohlina",49.331723,16.910468,740,0,U17442N245,2\,,70,cbf2a944-2e8d-4948-895e-374f5405eb5e,1882464.68683595,6331336.44080736
U17447Z1,"Studnice, Doubrava",49.359083,16.887012,745,0,U17447N246,2\,,71,b5275be6-fcc7-476f-8b42-8387a2d42a98,1879853.5768599,6336011.36543215
U12412Z1,Studnice,49.375665,16.879715,240,0,U12412N247,2\,,72,01a5a028-276a-449c-a605-39395155fff7,1879041.27853558,6338845.95003941
U12413Z1,"Studnice, Odrůvky",49.394393,16.882133,240,0,U12413N248,2\,,73,77035d49-a3a8-47a6-8d22-c85fd73b63fa,1879310.44906432,6342048.52953062
U12405Z1,Nové Sady,49.408905,16.901903,240,0,U12405N249,2\,,74,aaa158c1-a539-4c57-81a6-504aa0dd6466,1881511.2353973,6344530.99222126
U12405Z2,Nové Sady,49.408905,16.901903,240,0,U12405N249,2\,,75,53f1a22c-e50c-42fd-b056-82ac06532e91,1881511.2353973,6344530.99222126
U12413Z2,"Studnice, Odrůvky",49.39438,16.882065,240,0,U12413N248,2\,,76,829b47e9-bd64-476f-88cb-88f8eed05114,1879302.87933895,6342046.30604366
U12412Z2,Studnice,49.375665,16.879715,240,0,U12412N247,2\,,77,b7244c78-e9f4-4872-92ba-a2165f311b46,1879041.27853558,6338845.95003941
U17447Z2,"Studnice, Doubrava",49.359083,16.887005,745,0,U17447N246,2\,,78,b92fa4a0-81a1-456e-8288-af4efd5c13c9,1879852.79762346,6336011.36543215
U17438Z1,"Vyškov, Opatovice, u mlýna",49.300165,16.957503,740,0,U17438N250,2\,,79,4d6420db-6e65-4689-8221-2564c38c1972,1887700.59908541,6325947.44171169
U17437Z1,"Vyškov, Opatovice, náves",49.302252,16.954362,740,0,U17437N251,2\,,80,c175e723-5838-4157-b0e6-b714c4ba46e5,1887350.94456483,6326303.72148974
U17436Z1,"Vyškov, Opatovice, bytovky",49.300683,16.958572,740,0,U17436N252,2\,,81,870cffaf-ddf7-4650-8501-45c9c10e3dc0,1887819.59962107,6326035.87007159
U17423Z14,"Vyškov, Autobusové nádraží",49.275723,16.991653,740,0,U17423N203,2\,7,82,5790f17a-f59e-4b2f-bce6-f72e8e52ab79,1891502.159696,6321775.97669253
U17335Z4,"Rousínov, autobusová stanice",49.203115,16.885139,730,0,U17335N211,2\,4,83,779dd8b7-d613-4319-ba8b-eb695abe9da1,1879645.07545364,6309396.29833533
U17337Z2,"Rousínov, rozc. k žel. st.",49.198975,16.870335,730,0,U17337N230,2\,,84,df7c7bd3-c0ec-4601-9cad-9d9ac0e56230,1877997.10171194,6308690.97556524
U17346Z2,"Velešovice, obecní úřad",49.179512,16.847277,730,0,U17346N253,2\,,85,3e4da7d6-50ba-431e-a942-6166f61d18c6,1875430.29689323,6305375.89766791
U17347Z2,"Velešovice, u hřiště",49.175273,16.846278,730,0,U17347N254,2\,,86,39df3524-7011-44c9-bc5e-41835c1c41ef,1875319.08872193,6304654.05365657
U16331Z1,"Slavkov u Brna, poliklinika",49.156228,16.87922,635,0,U16331N255,2\,,87,5ef6819d-2c9d-4cf6-8213-e483d77be39e,1878986.17538764,6301411.71185777
U16328Z8,"Slavkov u Brna, aut. st.",49.148898,16.876145,635,0,U16328N124,2\,8,88,bbcb7da9-8a71-4464-89cf-8c6a4a8903be,1878643.86795345,6300164.13833552
U16328Z10,"Slavkov u Brna, aut. st.",49.148898,16.876145,635,0,U16328N124,2\,6,89,c160ba98-d5fd-45e0-904c-ebb9461e1a4a,1878643.86795345,6300164.13833552
U17347Z1,"Velešovice, u hřiště",49.175896,16.846738,730,0,U17347N254,2\,,90,e7338170-f212-4e3b-bd3c-a4a6cdfff282,1875370.29568769,6304760.13820302
U17346Z1,"Velešovice, obecní úřad",49.179572,16.847348,730,0,U17346N253,2\,,91,ec1ce499-b258-44bc-8d23-521a4869550a,1875438.20057708,6305386.1152951
U17335Z9,"Rousínov, autobusová stanice",49.203043,16.885015,730,0,U17335N211,2\,6,92,7ce9f681-ce70-456c-80b3-86e9f1c932d2,1879631.27183679,6309384.03134785
U16333Z1,"Slavkov u Brna, žel. st.",49.144747,16.87383,635,0,U16333N256,2\,,93,2b7c248c-a1a9-4fb4-8425-e852d8e5133d,1878386.16333226,6299457.71573204
U16324Z2,"Nížkovice, u hřiště",49.107553,16.898418,635,0,U16324N257,2\,,94,a26b4a6f-eec6-48ac-bd38-54f929dc40cb,1881123.28697189,6293130.63113121
U16312Z2,"Kobeřice, na kopci",49.09734,16.888722,635,0,U16312N258,2\,,95,860d3402-d921-4fac-b854-bd54e1aa2a17,1880043.93318916,6291394.12412387
U15429Z2,"Troskotovice, hřbitov",48.922002,16.441158,540,0,U15429N20,2\,,96,09922af4-a008-4e31-a8f2-78ac4bcffe31,1830221.33661176,6261637.11329541
U16534Z2,Želetice,49.012481,17.009044,662,0,U16534N112,2\,,97,d3134ab9-c174-4464-bdc3-f84d3e66d099,1893438.11696038,6276979.42397864
U16313Z2,"Kobeřice, pohostinství",49.091723,16.88588,635,0,U16313N259,2\,,98,56879a36-1ec7-4c3e-a8c2-63ba98bb39fe,1879727.56319632,6290439.22306567
U16313Z1,"Kobeřice, pohostinství",49.091723,16.88588,635,0,U16313N259,2\,,99,0ff2da5c-55b8-4e32-920e-a1dc0fad8d8b,1879727.56319632,6290439.22306567
U16312Z1,"Kobeřice, na kopci",49.09734,16.888722,635,0,U16312N258,2\,,100,11d00938-c7e7-40f2-8b7f-4e4ed7c67725,1880043.93318916,6291394.12412387
U16324Z1,"Nížkovice, u hřiště",49.107402,16.898368,635,0,U16324N257,2\,,101,ab0f7e3f-2bea-4a2c-ac9e-853c3e335778,1881117.72099735,6293104.95413691
U16322Z1,Nížkovice,49.10952,16.900963,635,0,U16322N260,2\,,102,022208a1-1c88-4a7a-96dd-396ebcc72966,1881406.59507596,6293465.11938143
U16323Z1,"Nížkovice, Na hraničkách",49.11181,16.906248,635,0,U16323N261,2\,,103,3dc84da4-9e1b-4078-bf8d-4aca774516bf,1881994.9185848,6293854.55047188
U16307Z1,Heršpice,49.119358,16.913313,635,0,U16307N262,2\,,104,2747bb1e-3eab-401a-b9b4-a1a559de6858,1882781.39078725,6295138.26984171
U16308Z1,"Heršpice, zelnice",49.122422,16.910233,635,0,U16308N263,2\,,105,f939432e-9374-42f4-86b7-85a370b633a9,1882438.52675561,6295659.43265821
U16333Z2,"Slavkov u Brna, žel. st.",49.144747,16.87383,635,0,U16333N256,2\,,106,b1804d0c-0ad3-4b51-9e14-b2ddb1cb8bbd,1878386.16333226,6299457.71573204
U18009Z13,"Znojmo, autobusové nádraží",48.851706,16.057086,800,0,U18009N38,2\,6,107,596ccf5a-00f8-4724-a63f-ef80ccfec304,1787466.6371438,6249736.36202691
U18022Z1,"Znojmo, Vídeňská, u školy",48.843183,16.060932,800,0,U18022N264,2\,,108,d39b0e38-043b-47dd-bbb4-957c67d9af83,1787894.77190539,6248294.59820276
U18040Z2,"Znojmo, Dukelská, u mostu",48.837405,16.066682,800,0,U18040N265,2\,,109,c1d4c095-3169-4e0e-8c00-eefde8a66ced,1788534.85897745,6247317.32235721
U18055Z1,"Znojmo, Načeratice, host.",48.818411,16.110672,800,0,U18055N266,2\,,110,4da8a54d-3711-4a83-9cfe-dbafd27143a6,1793431.80337745,6244105.52086515
U18054Z1,"Znojmo, Derflice",48.8096,16.140661,800,0,U18054N267,2\,,111,c551b4bf-1818-463d-a14a-6e3100e21314,1796770.16358685,6242616.03291218
U18129Z1,"Strachotice, obecní úřad",48.79636,16.172543,810,0,U18129N268,2\,,112,8841ff69-f576-4635-9c55-3f5ed2dba4f4,1800319.25159232,6240378.32040702
U18131Z1,"Strachotice, Micmanice",48.795962,16.183967,810,0,U18131N269,2\,,113,50c78224-e1ff-40a0-af06-0dc282fe9442,1801590.96545514,6240311.06296723
U18277Z1,Slup,48.781372,16.199545,829,0,U18277N270,2\,,114,49ae54df-f566-4a74-aaff-d53537f09f34,1803325.10048272,6237845.88835339
U18278Z1,"Slup, Oleksovičky, rozcestí",48.77529,16.207227,829,0,U18278N271,2\,,115,7559dc4d-dd0a-4ea2-83c9-88a09f2621f1,1804180.25681099,6236818.4651591
U18274Z1,Jaroslavice,48.757258,16.233215,829,0,U18274N272,2\,,116,0b2e8bb1-1a4f-4c34-9842-24f6e9d2c6f0,1807073.22773773,6233773.07765306
U18359Z2,"Hrádek, kulturní dům",48.775425,16.269938,839,0,U18359N273,2\,,117,97a28147-4e14-46ae-ad48-37891a83aae3,1811161.21339813,6236841.26915703
U18363Z2,"Hrádek, u mlýna",48.773192,16.278031,839,0,U18363N274,2\,,118,24e5629b-8f79-4edb-aacf-272ca5788257,1812062.12203712,6236464.08202076
U18357Z2,"Dyjákovice, nad hostincem",48.772632,16.29921,839,0,U18357N275,2\,,119,e1130539-f3b2-4816-8471-f893901f551c,1814419.75753263,6236369.49226664
U18358Z1,"Dyjákovice, škola",48.772805,16.303553,839,0,U18358N276,2\,,120,6d6e8ae4-d069-4b2e-86e2-b1965ec9e7c4,1814903.21808115,6236398.71363163
U15775Z3,"Hevlín, škola",48.75151,16.380257,570,0,U15775N4,2\,,121,40f0205e-d593-4bbd-91c8-9ccc12c29c49,1823441.86830296,6232802.53950206
U15775Z4,"Hevlín, škola",48.751285,16.380187,570,0,U15775N4,2\,,122,9836981b-b498-445f-a197-63b216e00264,1823434.0759386,6232764.5509663
U18358Z2,"Dyjákovice, škola",48.772805,16.303553,839,0,U18358N276,2\,,123,82dc46bf-b0d3-4e19-abf5-5f7c7d4dd1fc,1814903.21808115,6236398.71363163
U18357Z1,"Dyjákovice, nad hostincem",48.772692,16.299182,839,0,U18357N275,2\,,124,dffce7ed-790d-44ac-afb9-d0b7dc90ac93,1814416.64058689,6236379.62683269
U18363Z1,"Hrádek, u mlýna",48.773442,16.277078,839,0,U18363N274,2\,,125,193be7cb-64e8-4da6-aca1-1663f5caa1a8,1811956.0345624,6236506.30993021
U18359Z1,"Hrádek, kulturní dům",48.775944,16.269504,839,0,U18359N273,2\,,126,319c7752-3640-4a88-8060-a6dd8695ae8a,1811112.90073913,6236928.93843124
U18274Z2,Jaroslavice,48.757258,16.233215,829,0,U18274N272,2\,,127,50136acd-fc55-40e4-9443-3faf5093cfd1,1807073.22773773,6233773.07765306
U18278Z2,"Slup, Oleksovičky, rozcestí",48.775378,16.207205,829,0,U18278N271,2\,,128,a09005c1-5eab-4474-a9bc-9547aef63233,1804177.8077822,6236833.32998042
U18279Z2,"Slup, Oleksovičky, u mostu",48.780555,16.21034,829,0,U18279N277,2\,,129,7709ca0f-39c8-4e96-8585-f47de3f43798,1804526.79438583,6237707.86652294
U18277Z2,Slup,48.781508,16.199292,829,0,U18277N270,2\,,130,17cb12aa-1703-48d1-9a3a-45c78b612bf7,1803296.93665155,6237868.86405369
U18131Z2,"Strachotice, Micmanice",48.796048,16.18393,810,0,U18131N269,2\,,131,b249b272-e546-492b-9b70-d63a5e2ff8ff,1801586.84663398,6240325.59593666
U18129Z2,"Strachotice, obecní úřad",48.796507,16.172723,810,0,U18129N268,2\,,132,c56b7d77-0d7d-4ff4-b898-75045043010d,1800339.28910066,6240403.16185766
U18054Z2,"Znojmo, Derflice",48.809781,16.140364,800,0,U18054N267,2\,,133,d9c4672c-998d-4892-9736-5946c7c33039,1796737.10169808,6242646.62809062
U18055Z2,"Znojmo, Načeratice, host.",48.818567,16.110561,800,0,U18055N266,2\,,134,ba0352bb-8386-4cda-a40f-129a4b70bb73,1793419.44691397,6244131.89481844
U18040Z1,"Znojmo, Dukelská, u mostu",48.837955,16.066447,800,0,U18040N265,2\,,135,105c6b07-e8fe-4003-8a19-b7ba56578b28,1788508.69889712,6247410.34306763
U18022Z2,"Znojmo, Vídeňská, u školy",48.843794,16.060496,800,0,U18022N264,2\,,136,98914423-0b38-47a1-8291-151bb56ee0c3,1787846.23660741,6248397.94774017
U15317Z6,"Pohořelice, náměstí",48.980709,16.521906,530,0,U15317N26,2\,2,137,eb139721-f954-4fbb-aa1f-4847d15311b8,1839210.16285433,6271588.74859996
U15320Z1,"Pohořelice, obchodní akademie",48.978628,16.505258,530,0,U15320N96,2\,,138,2afebdc1-a1de-4670-a207-f1fe6f4db02b,1837356.91597161,6271235.79049854
U14011Z1,"Branišovice, státní silnice",48.959107,16.428737,449,0,U14011N95,2\,,139,ec8a6129-0ce9-425a-a598-3670f8f183dd,1828838.63721661,6267925.55380851
U14024Z1,"Trnové Pole, rozcestí",48.955275,16.413453,449,0,U14024N94,2\,,140,85dd6658-62e0-46f8-b5ad-fefac9448029,1827137.23011933,6267275.90178232
U14552Z1,"Miroslav, rozcestí",48.933498,16.362293,459,0,U14552N93,2\,2,141,42a09153-2253-4296-aeb2-0445484adf61,1821442.12497034,6263584.92001341
U16156Z3,"Újezd u Brna, městský úřad",49.103863,16.757613,610,0,U16156N325,2\,,142,be215eb5-3a23-49da-ae66-f2387046c6c7,1865448.94607074,6292503.18258664
U15434Z2,"Vlasatice, Troskotovická",48.931067,16.48339,540,0,U15434N21,2\,,143,2757a200-1401-481e-9fe0-e213adb1a62c,1834922.58134694,6263172.98995353
U16533Z2,"Želetice, statek",49.015307,17.006765,662,0,U16533N113,2\,,144,66698ba8-8b8b-415c-97e8-c04956f36000,1893184.41984087,6277459.07086799
U16156Z2,"Újezd u Brna, městský úřad",49.10469,16.757273,610,0,U16156N325,2\,,145,2aa82441-f61a-4376-b6b5-bb110887b962,1865411.09744387,6292643.80182163
U15433Z2,"Vlasatice, obecní úřad",48.933743,16.484258,540,0,U15433N22,2\,,146,c88ca15c-4f05-4db0-ba1a-69babb71f611,1835019.20666495,6263626.43608476
U16157Z2,"Újezd u Brna, Revoluční",49.106715,16.748685,610,0,U16157N324,2\,,147,c1b95470-9735-4876-8222-84b2cce02f5e,1864455.08565694,6292988.13330167
U16527Z2,Dražůvky,49.031967,17.020073,652,0,U16527N114,2\,,148,f53a2a45-df1e-42a1-9e3c-3db2f04b29ce,1894665.85962434,6280287.26677201
U15325Z1,"Pohořelice, Velký Dvůr, rozcestí",48.96221,16.519497,530,0,U15325N23,2\,,149,2e9cbc24-1382-40a3-b9a3-f7113143ecd2,1838941.99420101,6268451.65255132
U16525Z2,Archlebov,49.043193,17.003877,652,0,U16525N115,2\,,150,6a7514d3-7964-4b4e-975c-02d02780b0ce,1892862.92915146,6282193.52282597
U16149Z3,"Sokolnice, železniční stanice",49.108437,16.733573,610,0,U16149N323,2\,3,151,4ef5827e-ba0d-4877-8554-14775939f424,1862772.82551207,6293280.95364576
U15368Z1,"Pohořelice, průmyslová zóna jih",48.971925,16.516942,530,0,U15368N24,2\,,152,2f15f8af-0362-4f12-a3d1-37f4bfebd2ea,1838657.57290203,6270098.99582929
U16449Z2,Žarošice,49.040472,16.966415,652,0,U16449N116,2\,,153,8edebe01-1ef1-4ecb-b775-404dba46445f,1888692.67838736,6281731.43782725
U16145Z2,"Sokolnice, obecní úřad",49.114233,16.721202,610,0,U16145N322,2\,,154,faac6fa2-ae06-4420-87a8-b3b6858af60d,1861395.69209147,6294266.6187487
U15327Z1,"Pohořelice, Městský úřad",48.977073,16.515407,530,0,U15327N25,2\,,155,44925e7c-52d4-44a2-a89e-29f7f7ba25ed,1838486.69748367,6270972.05679874
U16448Z2,"Žarošice, škola",49.039435,16.9616,652,0,U16448N117,2\,,156,330b0eea-4ebe-4c2d-a63e-0fbd968a1397,1888156.67503919,6281555.33931929
U16173Z2,"Sokolnice, Brněnská",49.114426,16.71486,610,0,U16173N321,2\,,157,e62c06a1-8aa3-4e84-bf6d-dc243fd02592,1860689.70388086,6294299.44222142
U15317Z3,"Pohořelice, náměstí",48.980878,16.522413,530,0,U15317N26,2\,1,158,3f719125-5584-4971-9f4b-b67af0b31554,1839266.60183616,6271617.4133119
U16444Z2,"Žarošice, Silničná, rozcestí Uhřice",49.051834,16.95308,652,0,U16444N118,2\,,159,3711ee15-f9ce-4dd3-94a6-141865e6b566,1887208.23297763,6283661.12027682
U1592Z4,Sokolnická,49.131434,16.684472,101,0,U1592N320,2\,,160,77b09567-fd4d-40be-a207-7e7c876df51c,1857306.92719463,6297192.49115226
U15315Z2,"Pohořelice, Brněnská",48.984956,16.530513,530,0,U15315N27,2\,,161,5c3ffa4d-85b7-49a5-b5c1-79622d6a0571,1840168.28971159,6272309.12737166
U16446Z2,"Žarošice, Zdravá Voda",49.065466,16.945145,643,0,U16446N119,2\,,162,a3b637c4-0152-4f13-970e-f1ab8ded9a72,1886324.91281819,6285976.91367459
U1186Z2,Chrlická,49.143983,16.665097,101,0,U1186N319,1\,,163,c784cf5a-964e-4dd6-9ea4-f44f56c35b93,1855150.11206051,6299327.70366204
U15379Z2,"Pohořelice, průmyslová zóna východ",48.990539,16.540751,530,0,U15379N28,2\,,164,2fa6b0a4-a7fa-4f5c-ac68-e10115bd3679,1841307.97865833,6273256.21269901
U16445Z2,"Žarošice, Těšanka",49.079165,16.936537,643,0,U16445N120,2\,,165,e1db6e6e-ac0a-42cb-81da-17a57c160672,1885366.67464144,6288304.72905529
U1538Z2,Revoluční,49.150097,16.661811,101,0,U1538N318,2\,,166,0f049963-2708-489d-ad68-4c32976bc6b0,1854784.31621376,6300368.19673857
U15122Z4,"Modřice, Brněnská",49.130132,16.604936,510,0,U15122N29,2\,,167,b74c450c-91f5-4d1c-ab72-d90dd101368f,1848453.0201749,6296970.98678538
U16336Z2,"Heršpice, Bílý Vlk",49.095822,16.90958,635,0,U16336N121,2\,,168,a771e76c-9b1e-4069-9f5a-9730f868340c,1882365.83512812,6291136.05048057
U1118Z2,Glocova,49.151301,16.65914,101,0,U1118N317,2\,,169,4090a188-f4be-401a-8f5f-b555e48d6626,1854486.98185386,6300573.1110635
U1703Z7,Ústřední hřbitov,49.170741,16.597834,101,0,U1703N30,1\,,170,27858c91-2d39-4278-837c-3535dfd4f230,1847662.42915128,6303882.38410284
U16337Z2,"Nížkovice, rozcestí",49.11172,16.896114,635,0,U16337N122,2\,,171,20b45d1f-56cf-4fe4-9cb6-2858c2cc92ac,1880866.8068651,6293839.2449805
U1511Z2,Popelova,49.156778,16.646434,101,0,U1511N316,2\,,172,a3a0a014-0fbc-4df5-9cd5-cba195f82ee8,1853072.55640384,6301505.3298679
U1622Z1,Strážní,49.178207,16.603976,100,0,U1622N31,2\,,173,7979e409-b736-4cc4-9e0e-71d7b9c5ffba,1848346.15346374,6305153.66734113
U16332Z2,"Slavkov u Brna, rozc. k žel. st. 0.5",49.14503,16.877933,635,0,U16332N123,2\,,174,12f09f6e-4d19-4862-b67a-a17c1a760668,1878842.90720299,6299505.87516203
U1148Z2,Hněvkovského,49.169759,16.626234,101,0,U1148N315,1\,,175,21c89c02-f03e-4c9b-89d3-af1b97558544,1850823.90268981,6303715.18699312
U1696Z9,ÚAN Zvonařka,49.185364,16.616151,100,0,U1696N32,2\,34,176,62ca48d1-ad4d-46f2-8cd4-83f4189d9c6e,1849701.46826414,6306372.51522554
U16328Z2,"Slavkov u Brna, aut. st.",49.149057,16.876562,635,0,U16328N124,2\,2,177,0277acae-4912-4606-85d2-81b3fdc32347,1878690.28818111,6300191.19834015
U1565Z2,Sazenice,49.172877,16.623824,101,0,U1565N326,1\,,178,d5952ed1-9898-4584-ba70-3bfc420a9ea6,1850555.622717,6304246.07480846
U1622Z2,Strážní,49.178477,16.603646,100,0,U1622N31,2\,,179,cb5bbf70-35de-4021-93c7-bc80dfcf4287,1848309.41803177,6305199.64554868
U16334Z2,"Velešovice, rozc.",49.167572,16.84187,635,0,U16334N125,2\,,180,150e51d5-b1d3-4cc0-9d6a-f47c1af4c6f6,1874828.39240651,6303342.83630402
U1807Z2,Železniční,49.183322,16.619338,100,0,U1807N314,2\,,181,2b7564a4-372e-461f-bc15-d84d151b5420,1850056.2434813,6306024.74157641
U1703Z6,Ústřední hřbitov,49.170744,16.597612,101,0,U1703N30,1\,,182,d060b42f-799b-4507-bfe6-d5652d52fade,1847637.71622433,6303882.89489339
U16206Z2,"Holubice, nadjezd",49.178267,16.819095,620,0,U16206N126,2\,,183,6f59b2ba-a2f9-430f-9053-d9e536ea67fc,1872293.09100369,6305163.88469891
U19001Z12,"Hodonín, autobusové nádraží",48.854087,17.121641,900,0,U19001N145,2\,7,184,46c309c3-d430-45f9-895a-8c1636fac917,1905972.35766524,6250139.17951697
U15137Z10,"Modřice, Tyršova",49.130136,16.603469,510,0,U15137N33,2\,,185,3f544e92-5a81-404b-ae7d-cd62ed0a1eaf,1848289.7144819,6296971.66728144
U1677Z2,Tržní,49.189407,16.629972,100,0,U1677N127,2\,,186,06ec0722-ea53-4c50-a30c-445f7b076906,1851240.0149464,6307061.12214145
U19011Z1,"Hodonín, restaurace Morava",48.855525,17.133732,900,0,U19011N144,2\,,187,dcbdb738-3391-4c84-8a52-47c1417026b4,1907318.32162842,6250382.46958188
U15379Z1,"Pohořelice, průmyslová zóna východ",48.989921,16.539353,530,0,U15379N28,2\,,188,2e5e2359-8845-4d86-9e67-c2ea38b948d4,1841152.3540102,6273151.37159318
U1696Z6,ÚAN Zvonařka,49.185364,16.616151,100,0,U1696N32,2\,29,189,55a9c500-114a-4114-853b-c22053ddce68,1849701.46826414,6306372.51522554
U19007Z1,"Hodonín, lázně",48.862895,17.140778,900,0,U19007N143,2\,,190,120bd432-8197-4587-bd4a-45fd58cf3f49,1908102.67876055,6251629.48316886
U15315Z1,"Pohořelice, Brněnská",48.984843,16.529998,530,0,U15315N27,2\,,191,a5fcecc4-a0e0-4105-bf2a-9e7e5dec9496,1840110.96017383,6272289.95944664
U1677Z3,Tržní,49.189342,16.630314,100,0,U1677N127,2\,,192,bcc096a9-7c40-41ff-9ffb-90abbe36bc0b,1851278.08621225,6307050.05084565
U19004Z1,"Hodonín, Černý most",48.866438,17.142225,900,0,U19004N142,2\,,193,a6326cc7-d018-430e-9f64-322566f6b5af,1908263.75806372,6252229.02873681
U15317Z4,"Pohořelice, náměstí",48.980709,16.521906,530,0,U15317N26,2\,2,194,8f36352d-16a1-4ff3-b7e5-095663b75baf,1839210.16285433,6271588.74859996
U16206Z1,"Holubice, nadjezd",49.178081,16.819173,620,0,U16206N126,2\,,195,68243a0d-4fa0-4614-b150-67722b9a8cae,1872301.77392398,6305132.21093011
U19003Z1,"Hodonín, cihelna",48.872317,17.146772,900,0,U19003N141,2\,,196,344201e7-0e41-40db-9b9f-8972c77e6cae,1908769.92778836,6253223.96530044
U15327Z2,"Pohořelice, Městský úřad",48.976752,16.515348,530,0,U15327N25,2\,,197,bff92a82-1103-47ff-86e6-752e1e860f08,1838480.12963371,6270917.61504662
U16334Z1,"Velešovice, rozc.",49.166882,16.842802,635,0,U16334N125,2\,,198,3d35e9e9-ef1a-4875-aeeb-e19fd5f6261c,1874932.14217193,6303225.3628193
U19009Z1,"Hodonín, Pánov",48.882762,17.147507,900,0,U19009N140,2\,,199,b0843a26-6046-4a31-9df1-58907864f958,1908851.74761409,6254991.92039559
U15368Z2,"Pohořelice, průmyslová zóna jih",48.971337,16.516835,530,0,U15368N24,2\,,200,6af9baec-a8f3-49b8-aa14-220e727e8ac4,1838645.66171652,6269999.28131538
U16328Z3,"Slavkov u Brna, aut. st.",49.149057,16.876562,635,0,U16328N124,2\,3,201,e1a54398-443b-4f85-9ff9-6f9f4ac6f804,1878690.28818111,6300191.19834015
U19159Z1,"Ratíškovice, U Hájenky",48.915648,17.160594,917,0,U19159N139,2\,,202,77a11ce5-1bb6-4dbf-adc0-5625b1677fde,1910308.58579011,6260560.72566024
U15325Z2,"Pohořelice, Velký Dvůr, rozcestí",48.96186,16.519344,530,0,U15325N23,2\,,203,3f0ed47b-21fe-4995-b6de-8f8b04d0389c,1838924.96231892,6268392.310095
U16332Z1,"Slavkov u Brna, rozc. k žel. st. 0.5",49.143955,16.878297,635,0,U16332N123,2\,,204,5bbc0913-55f8-4498-9997-f81587d201cd,1878883.42749764,6299322.93885986
U19154Z1,Ratíškovice,48.92089,17.16175,917,0,U19154N138,2\,,205,a7614a97-8478-4b95-b69c-5565b25fe56d,1910437.27112146,6261448.72710398
U15433Z1,"Vlasatice, obecní úřad",48.9337,16.484063,540,0,U15433N22,2\,,206,90ebc9cb-46ae-4607-a76b-936aab0d7216,1834997.49936424,6263619.14957586
U16337Z1,"Nížkovice, rozcestí",49.11212,16.895599,635,0,U16337N122,2\,,207,ebd61452-d81a-49b7-bc57-7b8d06ceb83b,1880809.47732734,6293907.26959915
U19160Z1,"Ratíškovice, u Svatého Jána",48.923624,17.168384,917,0,U19160N137,2\,,208,2eee1123-9d6e-45a9-ba68-de1669433c87,1911175.76462339,6261911.90714988
U15434Z1,"Vlasatice, Troskotovická",48.931128,16.48354,540,0,U15434N21,2\,,209,b7543d23-ecb8-4fc3-b69a-4271fd7a4f69,1834939.27927056,6263183.32608568
U16336Z1,"Heršpice, Bílý Vlk",49.095813,16.909428,635,0,U16336N121,2\,,210,a31bb399-2990-4766-bbe6-227ece420290,1882348.91456552,6291134.52042321
U19155Z1,"Ratíškovice, drůbežárna",48.931355,17.168897,917,0,U19155N136,2\,,211,7e675932-1c10-40a5-a0a7-94b741195bab,1911232.87152216,6263221.79016379
U15429Z1,"Troskotovice, hřbitov",48.921882,16.440898,540,0,U15429N20,2\,,212,60ac1510-bb5a-424e-935a-64e399cdfba0,1830192.39354415,6261616.78364839
U16445Z1,"Žarošice, Těšanka",49.079005,16.936517,643,0,U16445N120,2\,,213,51fc6859-7b40-4779-aaf1-0927df5498e6,1885364.44825162,6288277.53720052
U19162Z1,"Vacenovice, stadion",48.93928,17.17065,917,0,U19162N135,2\,,214,e4925c8a-c10f-4533-8aaa-c14d35e459f8,1911428.01458952,6264564.75363702
U15431Z1,"Troskotovice, škola",48.918878,16.436692,540,0,U15431N19,2\,,215,bfd454de-eb92-4555-a3bd-3decd36b2451,1829724.18376587,6261107.88073386
U16446Z1,"Žarošice, Zdravá Voda",49.065466,16.945145,643,0,U16446N119,2\,,216,5560fd83-1a07-41c7-801f-8b43b94b401c,1886324.91281819,6285976.91367459
U19161Z3,Vacenovice,48.945423,17.174122,917,0,U19161N134,2\,,217,d036df27-7d49-4100-81be-a84bb641aaed,1911814.51586156,6265605.88767799
U15430Z1,"Troskotovice, prodejna",48.918698,16.43252,540,0,U15430N18,2\,,218,09c76136-ab6c-40d0-9448-ed638ec4cacc,1829259.75885028,6261077.38818894
U16444Z1,"Žarošice, Silničná, rozcestí Uhřice",49.051812,16.953006,652,0,U16444N118,2\,,219,d9a2f795-e854-4b1d-a3ec-90c1d919a975,1887199.99533531,6283657.38344746
U16804Z1,"Milotice, škola",48.954322,17.152017,685,0,U16804N133,2\,,220,b7296667-e79e-4f39-8f2c-836d65da4dde,1909353.79851757,6267114.34419165
U15552Z1,Jiřice u Miroslavi,48.920697,16.39138,550,0,U15552N17,2\,,221,b8227e5b-23e7-4760-b460-838d2034c897,1824680.07499905,6261416.03100691
U16448Z1,"Žarošice, škola",49.039337,16.96142,652,0,U16448N117,2\,,222,41e95977-ce25-443c-8c26-39a9e62305e8,1888136.63753085,6281538.69760582
U16802Z1,"Milotice, náves",48.954794,17.142376,685,0,U16802N132,2\,,223,42f5562b-a500-4893-a615-ac448c4e5d9e,1908280.56730683,6267194.35973748
U15554Z1,"Litobratřice, obecní úřad",48.888397,16.40314,550,0,U15554N16,2\,,224,7ed1e9b1-ff91-415e-8a6f-b0a863bd2da1,1825989.19221078,6255945.87238595
U16449Z1,Žarošice,49.040617,16.967482,652,0,U16449N116,2\,,225,7bf6b846-af56-4773-b96b-ee3175869537,1888811.45628403,6281756.0613442
U16801Z1,"Milotice, dvůr",48.965408,17.140677,685,0,U16801N131,2\,,226,e39fb646-483a-4826-b57d-710caa27b351,1908091.43549198,6268993.89234034
U15553Z1,"Litobratřice, u konírny",48.883443,16.400735,550,0,U15553N15,2\,,227,17717c26-8274-46f7-a0d6-1d267893c18d,1825721.46883542,6255107.20151864
U16525Z1,Archlebov,49.043113,17.00413,652,0,U16525N115,2\,,228,52eb40ee-cbbb-4adb-bcae-6d81a416ce1f,1892891.09298263,6282179.93672473
U16805Z1,Skoronice,48.981563,17.153897,685,0,U16805N130,2\,,229,a28312a9-7f7b-41e8-ac59-3338e3862c22,1909563.07916026,6271733.59967819
U15635Z1,"Hrušovany nad Jevišovkou, STS",48.842928,16.40373,560,0,U15635N14,2\,,230,f90148db-0b74-429e-a829-0ffae7d68e89,1826054.87071035,6248251.46579002
U16527Z1,Dražůvky,49.031967,17.020073,652,0,U16527N114,2\,,231,62525ce5-f9c5-4a56-abf5-b2ef5ad5576f,1894665.85962434,6280287.26677201
U16819Z1,"Vlkoš, škola",48.985473,17.15926,685,0,U16819N129,2\,,232,718c01b5-065b-4f5e-8641-3adc78c0ded1,1910160.08558939,6272396.82542366
U15632Z2,"Hrušovany nad Jevišovkou, Lidická, VÚPP",48.831517,16.401898,560,0,U15632N13,2\,,233,cfa03aed-9ade-4652-b0fc-8420b1652f7f,1825850.93340321,6246321.55735637
U16533Z1,"Želetice, statek",49.01512,17.006987,662,0,U16533N113,2\,,234,8425e208-1fcd-4ff1-8314-3c93fe5ad77a,1893209.13276782,6277427.33118443
U16608Z3,"Kyjov, aut. st.",49.006715,17.124547,675,0,U16608N105,2\,15,235,7f7a9142-a78e-494f-beeb-8122755f68cf,1906295.85210548,6276000.86582886
U15631Z1,"Hrušovany nad Jevišovkou, lékárna",48.82892,16.399635,560,0,U15631N12,2\,,236,834184a0-ee53-4fdd-bd5e-de7fcebf5af9,1825599.01739555,6245882.39588631
U16534Z1,Želetice,49.012693,17.009444,662,0,U16534N112,2\,,237,a2fbee51-065f-4a64-822c-b08c90ec8f5d,1893482.6447567,6277015.40503699
U16609Z1,"Kyjov, Brandlova sídliště",49.012038,17.136722,675,0,U16609N327,2\,,238,6b3bb9c2-e773-4d9f-b1f4-c8b4d0a1f676,1907651.16690589,6276904.23763903
U15634Z1,"Hrušovany nad Jevišovkou, statek",48.817595,16.39771,560,0,U15634N11,2\,,239,cb5d4608-33da-4739-b9b0-c8dfaa22cce1,1825384.72737577,6243967.5661393
U16530Z1,"Nenkovice, u kašny",49.001724,17.007864,662,0,U16530N111,2\,,240,71b4622a-6f8b-447a-a0f8-40fd3913d32e,1893306.75996125,6275153.92579902
U16836Z2,"Kostelec, točna",49.026817,17.152758,687,0,U16836N328,2\,,241,8c5975bc-4d3a-41cb-9c35-964fd3c45515,1909436.28626025,6279412.90342402
U15628Z1,"Hrabětice, rozcestí",48.811255,16.39406,560,0,U15628N10,2\,,242,a047930f-2826-4e67-9173-21d13bdde45d,1824978.41123437,6242895.78851763
U16528Z1,"Nenkovice, obecní úřad",49.004197,17.011395,662,0,U16528N110,2\,,243,18019b6d-9670-4062-9b73-4109022e29ae,1893699.82908324,6275573.56710175
U16835Z1,"Kostelec, horní zastávka",49.032285,17.149582,687,0,U16835N329,2\,,244,857a8f70-f615-4b0e-b3a3-8345861a66a9,1909082.73555749,6280341.25955337
U15637Z1,"Hrušovany nad Jevišovkou, žel. st.",48.810462,16.383468,560,0,U15637N9,2\,,245,5e07ef6e-b3f5-423e-9b5e-d4a13c76e36f,1823799.31518789,6242761.74132604
U16529Z1,"Nenkovice, škola",49.004607,17.015563,662,0,U16529N109,2\,,246,62c5145a-2e74-4432-8d41-4719796c597e,1894163.80872087,6275643.14167286
U16826Z1,"Čeložnice, Domov důchodců",49.048863,17.154308,687,0,U16826N330,2\,,247,0e30a032-5ab0-4c7b-80c8-7ade4a0edefe,1909608.83147098,6283156.49342407
U15639Z1,"Šanov, požární zbrojnice",48.802093,16.374043,560,0,U15639N8,2\,,248,0cc1afe5-364e-4a01-8879-2dfbabb6244b,1822750.12898717,6241347.19092778
U16635Z1,Stavěšice,49.001868,17.029877,662,0,U16635N108,2\,,249,a7419486-5198-4f67-9f10-83b85b99fc71,1895757.23591208,6275178.36046729
U16825Z1,Čeložnice,49.051555,17.154533,687,0,U16825N331,2\,,250,456ea40f-18ec-451b-932c-bc461f7947d7,1909633.87835641,6283613.73060883
U15640Z1,"Šanov, u mostu",48.799232,16.386737,560,0,U15640N7,2\,,251,e22e471f-2eb1-4953-9604-c3719b457ad6,1824163.2186033,6240863.6713192
U16622Z1,Strážovice,49.0093,17.047132,662,0,U16622N107,2\,,252,a7eecfb2-6f78-4a34-8017-070c3018eeec,1897678.05372572,6276439.55677785
U16825Z2,Čeložnice,49.051555,17.154533,687,0,U16825N331,2\,,253,099903f1-df8b-41c7-bf4d-49b95890dedb,1909633.87835641,6283613.73060883
U15627Z1,Hrabětice,48.796863,16.395113,560,0,U15627N6,2\,,254,23ed0b5b-5ecb-45b0-9844-5f8ef8c81225,1825095.63065818,6240463.32240709
U16612Z1,"Kyjov, nemocnice",49.006845,17.11013,675,0,U16612N106,2\,,255,9f96fae5-077b-479e-94ac-5ec17ab5f09d,1904690.95900671,6276022.92711222
U16826Z2,"Čeložnice, Domov důchodců",49.048863,17.154308,687,0,U16826N330,2\,,256,614ff595-f84c-4d74-97d8-f238bb9ee95b,1909608.83147098,6283156.49342407
U15773Z1,"Hevlín, cihelna",48.76153,16.383382,570,0,U15773N5,2\,,257,0b92a13b-1c2c-4127-ad49-33c24e9d84a2,1823789.74171168,6234494.46813666
U16608Z16,"Kyjov, aut. st.",49.006873,17.123912,675,0,U16608N105,2\,,258,4453b19e-3c38-4336-899f-dc8791f10c50,1906225.16422883,6276027.67878079
U16835Z2,"Kostelec, horní zastávka",49.032285,17.149582,687,0,U16835N329,2\,,259,447d2b3f-e30b-47c8-bd31-701e46f657fd,1909082.73555749,6280341.25955337
U15775Z1,"Hevlín, škola",48.75151,16.380257,570,0,U15775N4,2\,,260,97e349f6-45be-4677-bfe9-acf0c7d8ac58,1823441.86830296,6232802.53950206
U16608Z8,"Kyjov, aut. st.",49.006608,17.124285,675,0,U16608N105,2\,7,261,fe70a4f3-f645-40b8-98a7-1734e25b8d6b,1906266.68639889,6275982.70773885
U16609Z2,"Kyjov, Brandlova sídliště",49.011808,17.136515,675,0,U16609N327,2\,,262,296e7ada-c608-4d65-b4f8-15aca07caff8,1907628.12377129,6276865.20210579
U15843Z1,"Hevlín, LAA BOMBA - SHOPPING CENTER",48.732097,16.38276,570,0,U15843N34,2\,,263,ef4da599-5165-4bbc-a5d4-4844fd0ad399,1823720.50098841,6229525.51426928
U16817Z1,Vlkoš,48.990855,17.16172,685,0,U16817N128,2\,,264,70934e49-9b28-4b57-b383-1183886a3db8,1910433.93153674,6273309.82127502
U19001Z16,"Hodonín, autobusové nádraží",48.854151,17.122164,900,0,U19001N145,2\,1,265,14effd4c-6494-4510-adb3-1309cf9b5dc8,1906030.57775892,6250150.00729895
U15829Z1,"Laa an der Thaya, Stadtplatz",48.720393,16.384622,580,0,U15829N35,2\,,266,d8522f2c-876e-4a6e-ae88-30e3643be2e8,1823927.77788027,6227550.42358834
U16819Z2,"Vlkoš, škola",48.985362,17.15911,685,0,U16819N129,2\,,267,d9000ce9-9aef-4ba1-ab7f-02c87885d8d5,1910143.38766577,6272377.99655823
U19149Z2,"Dubňany, škola",48.910813,17.100845,917,0,U19149N332,2\,,268,5a35e8df-5237-4b93-8b1a-aced9b5e8f75,1903657.3575347,6259741.75313959
U15838Z1,"Laa an der Thaya, Bahnhof",48.722881,16.402679,580,0,U15838N36,2\,,269,c6bd5ac8-7897-453c-b2a8-c8583de9dc18,1825937.87392552,6227970.24376681
U16805Z2,Skoronice,48.98157,17.153808,685,0,U16805N130,2\,,270,8f6e30b0-5fb8-4380-beba-3fc8b4f20868,1909553.17172558,6271734.78699236
U19151Z1,"Dubňany, u mlýna",48.915073,17.09902,917,0,U19151N333,2\,,271,b8ba5ff4-2ba9-4050-9cfb-3c6787ad43a2,1903454.199464,6260463.3256029
U15839Z1,"Laa an der Thaya, Therme",48.723047,16.395582,580,0,U15839N37,2\,,272,ac2b0632-bab9-44c6-9d4e-234f6d425a3d,1825147.83949936,6227998.25501613
U16801Z2,"Milotice, dvůr",48.965403,17.14059,685,0,U16801N131,2\,,273,08afd2be-d120-434b-a6bd-626c0c761e11,1908081.75069628,6268993.04453367
U19147Z2,"Dubňany, pivnice",48.916573,17.09714,917,0,U19147N334,2\,,274,ae651109-5b96-4af8-82b0-8e85e7747d3a,1903244.91882131,6260717.41506148
U15839Z2,"Laa an der Thaya, Therme",48.723047,16.395582,580,0,U15839N37,2\,,275,f9765e02-a164-4d2a-840c-5730b972969b,1825147.83949936,6227998.25501613
U16802Z2,"Milotice, náves",48.954121,17.142692,685,0,U16802N132,2\,,276,1743a14d-a7dd-4202-bd6f-f20a38726f72,1908315.74426592,6267080.27000474
U19143Z2,"Dubňany, kaplička",48.916199,17.089519,917,0,U19143N335,2\,,277,6a449304-0cce-4012-ace3-bbcd06c44722,1902396.55298197,6260654.0613758
U15838Z2,"Laa an der Thaya, Bahnhof",48.723331,16.402208,580,0,U15838N36,2\,,278,eb5eb35c-0b21-451f-a81d-098968496be3,1825885.44244536,6228046.17809081
U16804Z2,"Milotice, škola",48.954267,17.152105,685,0,U16804N133,2\,,279,37e88d21-4810-4c6c-9940-c86581fa332d,1909363.59463276,6267105.02039552
U19153Z2,"Dubňany, učiliště",48.917903,17.084772,917,0,U19153N336,2\,,280,6fffa6f1-281e-49c7-a0c0-9f286e7aab6f,1901868.11935918,6260942.71409659
U15829Z2,"Laa an der Thaya, Stadtplatz",48.720393,16.384622,580,0,U15829N35,2\,,281,a14a9de2-d296-49c6-94de-dc64116c1eb4,1823927.77788027,6227550.42358834
U19161Z2,Vacenovice,48.945252,17.173992,917,0,U19161N134,2\,,282,bc5b8ee1-0692-4c22-bd62-b08441042497,1911800.04432775,6265576.9043517
U19148Z2,"Dubňany, rozcestí k železniční stanici",48.920705,17.073568,917,0,U19148N337,2\,,283,259a0c5e-1e94-40c8-853f-4820982915aa,1900620.89578433,6261417.38628303
U15843Z11,"Hevlín, LAA BOMBA - SHOPPING CENTER",48.732097,16.38276,570,0,U15843N34,2\,,284,a2bb179f-7eca-4e20-9149-ea0abb1b6823,1823720.50098841,6229525.51426928
U19162Z2,"Vacenovice, stadion",48.939803,17.170687,917,0,U19162N135,2\,,285,92f49e16-e6c1-4a72-aa4d-a1e45669396c,1911432.13341068,6264653.38825312
U19142Z2,"Dubňany, Jarohněvice",48.924738,17.075872,917,0,U19142N338,2\,,286,c4e05436-1ca8-44ec-80f5-fee317e25204,1900877.37589112,6262100.6425009
U1696Z8,ÚAN Zvonařka,49.185364,16.616151,100,0,U1696N32,2\,33,287,aefdcf6c-307c-4249-ad2a-ad3f21e52f3f,1849701.46826414,6306372.51522554
U19155Z2,"Ratíškovice, drůbežárna",48.931957,17.1689,917,0,U19155N136,2\,,288,1c7691df-26f4-4cbb-b9a2-b77f85b5cec1,1911233.20548063,6263323.79706802
U19148Z1,"Dubňany, rozcestí k železniční stanici",48.92073,17.072988,917,0,U19148N337,2\,,289,562b9632-85fb-4b8c-abf1-666a8c042707,1900556.33047967,6261421.62152232
U18009Z51,"Znojmo, autobusové nádraží",48.851908,16.056983,800,0,U18009N38,2\,,290,dd7eed9f-3b62-43e0-a9bd-bf34ed758ff3,1787455.17123625,6249770.5356356
U19160Z2,"Ratíškovice, u Svatého Jána",48.923645,17.168112,917,0,U19160N137,2\,,291,f9f401cb-fa1b-43b3-9f89-68479ced7ff4,1911145.48572189,6261915.46495868
U19153Z1,"Dubňany, učiliště",48.917672,17.085105,917,0,U19153N336,2\,,292,4706ccf3-7958-418e-9221-d8c8e6c731b0,1901905.18874961,6260903.58278108
U18009Z1,"Znojmo, autobusové nádraží",48.851886,16.057356,800,0,U18009N38,2\,5,293,d101b428-0f7b-4a50-bd9a-fe6bda907f98,1787496.69340632,6249766.81375074
U19154Z4,Ratíškovice,48.920947,17.161482,917,0,U19154N138,2\,,294,7d00aeb1-943c-412b-9f2d-6ad3d4fbe304,1910407.43749793,6261458.38348842
U19150Z1,"Dubňany, školka",48.9171,17.093743,917,0,U19150N339,2\,,295,1a66474d-0aa5-4a78-9e7b-5dd864a185b8,1902866.76651108,6260806.68696912
U1696Z11,ÚAN Zvonařka,49.185364,16.616151,100,0,U1696N32,2\,31,296,ccfb26a1-27e9-4523-8c77-3390433de09a,1849701.46826414,6306372.51522554
U19159Z2,"Ratíškovice, U Hájenky",48.914993,17.160449,917,0,U19159N139,2\,,297,067e69a3-8417-4f10-90ed-ebd8c9ded5dc,1910292.44446394,6260449.77437941
U19141Z1,"Dubňany, Horní Huť",48.926363,17.08807,917,0,U19141N340,2\,,298,7aa58b3b-64d9-49fc-972a-8f368a675de7,1902235.25103981,6262375.95969681
U15714Z1,"Mikulov, železniční stanice",48.801587,16.626658,571,0,U15714N39,2\,1,299,af9dee5c-bbeb-4c8b-ab2c-b6471b853836,1850871.10215391,6241261.67304393
U19009Z2,"Hodonín, Pánov",48.882564,17.147405,900,0,U19009N140,2\,,300,b538e049-ccfd-4763-a157-9fdb445b7d60,1908840.39302603,6254958.40283057
U19145Z1,"Dubňany, náměstí",48.920078,17.102671,917,0,U19145N341,2\,,301,b0b058e0-0632-4217-9095-4636ff11cf6f,1903860.62692489,6261311.16717493
U15709Z3,"Mikulov, u parku",48.802552,16.63395,571,0,U15709N40,2\,,302,643a3930-15b7-48e5-bc73-30b30fd20de5,1851682.84388077,6241424.76619717
U19003Z2,"Hodonín, cihelna",48.871897,17.146337,900,0,U19003N141,2\,,303,8554d529-21c2-426f-91df-c4dc6d110e01,1908721.50380987,6253152.8824372
U19144Z1,"Dubňany, kostel",48.922723,17.108403,917,0,U19144N342,2\,,304,314f7740-5016-43e3-a817-4ce9df1029a7,1904498.71024611,6261759.26161963
U15702Z2,"Mikulov, Brněnská",48.812258,16.630495,571,0,U15702N41,2\,,305,3d4fd3e2-122c-4f24-ba33-70736326fa38,1851298.23504008,6243065.33674111
U19004Z2,"Hodonín, Černý most",48.866435,17.142004,900,0,U19004N142,2\,,306,f94c4ee5-5d3f-4833-afc9-a9778ca62460,1908239.15645626,6252228.52105961
U19144Z2,"Dubňany, kostel",48.9231,17.107234,917,0,U19144N342,2\,,307,261ce57e-ceb6-44e4-be68-4d3baa2e7a5b,1904368.57776138,6261823.13183384
U15701Z2,"Bavory, rozcestí",48.830925,16.612887,552,0,U15701N42,2\,,308,b679fbd4-a267-4717-b8a8-09188d495894,1849338.12144619,6246221.44615419
U19007Z2,"Hodonín, lázně",48.86267,17.140467,900,0,U19007N143,2\,,309,cc72a034-076a-4512-8ddd-8301896780a7,1908068.05839891,6251591.41015883
U19145Z2,"Dubňany, náměstí",48.920289,17.102765,917,0,U19145N341,2\,,310,c9d23d1e-e24d-4721-a36e-68eb6400e382,1903871.09095702,6261346.91221237
U15545Z2,"Dolní Dunajovice, rozcestí",48.851635,16.608425,552,0,U15545N43,2\,,311,a233e86f-58d8-4f36-8a44-020d2f2a418a,1848841.41387827,6249724.35054373
U19011Z2,"Hodonín, restaurace Morava",48.855442,17.133451,900,0,U19011N144,2\,,312,c4092948-e833-45b7-b5ae-6588b132ce5a,1907287.0408515,6250368.42691938
U19150Z2,"Dubňany, školka",48.917078,17.093072,917,0,U19150N339,2\,,313,255a739a-bfaf-49fe-b5a3-67071896445d,1902792.07113276,6260802.96022928
U15544Z3,"Dolní Dunajovice, Jednota",48.855323,16.591977,552,0,U15544N44,2\,,314,30e78232-bc3f-4be4-ba06-5fc9d2bbb808,1847010.43089371,6250348.29350413
U19001Z50,"Hodonín, autobusové nádraží",48.853643,17.121537,900,0,U19001N145,2\,,315,32bbc885-48ab-4fb6-a5b8-81f7f9ad204c,1905960.78043819,6250064.06216063
U19143Z1,"Dubňany, kaplička",48.916155,17.08939,917,0,U19143N335,2\,,316,e7a5cbbd-7f7c-407e-9f75-9a847a8c55af,1902382.19276766,6260646.60803219
U15543Z2,"Dolní Dunajovice, Hlavní",48.857637,16.58679,552,0,U15543N45,2\,,317,de166eb5-b706-4d4c-8bfd-193a954fbe90,1846433.01669496,6250739.80396044
U19001Z1,"Hodonín, autobusové nádraží",48.854398,17.121874,900,0,U19001N145,2\,13,318,c350796e-0bf2-4c5d-b949-62628c2d76b8,1905998.29510659,6250191.79589981
U19147Z1,"Dubňany, pivnice",48.916235,17.095502,917,0,U19147N334,2\,,319,f4b9d8a6-070f-4c80-b6cc-98106aae176d,1903062.57749539,6260660.1595709
U15565Z2,"Brod nad Dyjí, obecní úřad",48.874869,16.534286,540,0,U15565N46,2\,,320,1ce2aeee-e6eb-45bc-9ab1-8c4d8c31d19f,1840588.29815035,6253655.89114609
U19002Z2,"Hodonín, Brněnská",48.862608,17.118852,900,0,U19002N146,2\,,321,805be0f6-2909-49d2-b70f-2dd8bab04bed,1905661.88760541,6251580.91895948
U19151Z2,"Dubňany, u mlýna",48.915052,17.09891,917,0,U19151N333,2\,,322,86ea7328-5b12-409b-a54f-29a1fd9f4786,1903441.95432001,6260459.76840464
U15558Z4,Drnholec,48.857435,16.487133,551,0,U15558N47,2\,,323,e2a8c6a9-a4ad-42ff-a5ea-5cc34e95740c,1835339.25020098,6250705.62644077
U19012Z2,"Hodonín, STS",48.871603,17.116652,900,0,U19012N147,2\,,324,932f4e4a-b33c-4755-922d-8e3a5eee8cd4,1905416.98472567,6253103.12478798
U19149Z1,"Dubňany, škola",48.911238,17.100547,917,0,U19149N332,2\,,325,8bb72d21-cf02-4c07-ab31-e54b4d0c6a3a,1903624.18432644,6259813.73823982
U15428Z2,"Pasohlávky, u kostela",48.90308,16.54164,540,0,U15428N48,2\,,326,d79cd04e-f2d2-49b2-bed7-f16ea08ae092,1841406.94168565,6258432.06998507
U19015Z2,"Hodonín, Zbrod",48.887661,17.063292,900,0,U19015N148,2\,,327,b8cb6566-0f43-4ef2-9fc7-3b581c7be36a,1899476.97669694,6255821.26847163
U16345Z5,"Klobouky u Brna, náměstí",48.995257,16.857507,640,0,U16345N161,2\,2,328,728d3c35-dd4c-46f2-9c88-157126c312df,1876569.09528404,6274056.64445828
U15427Z2,"Pasohlávky, rozcestí Ivaň",48.919619,16.556467,540,0,U15427N49,2\,,329,3b7b964d-4e15-4b29-888f-730dda26c648,1843057.47577564,6261233.40953444
U19103Z2,"Mutěnice, křižovatka",48.904657,17.028645,910,0,U19103N149,2\,,330,95bf62c3-4cb5-4bcc-90e6-d5353b860b69,1895620.09029942,6258699.13879661
U16346Z1,"Klobouky u Brna, ropovod",48.983635,16.862805,640,0,U16346N343,2\,,331,bcb0c3fb-35af-4e30-9e2b-de926e061712,1877158.86594627,6272085.05195524
U15318Z2,"Pohořelice, Nová Ves",48.937338,16.528195,540,0,U15318N50,2\,,332,c6a953fe-d1bc-45dc-98ec-6f7e527b37d4,1839910.25113193,6264235.64431724
U19104Z2,"Mutěnice, škola",48.90765,17.018955,910,0,U19104N150,2\,,333,20e7df91-72c0-47fa-818c-9db7c28c9c46,1894541.40443364,6259206.03385249
U16349Z1,"Klobouky u Brna, samota",48.97557,16.862025,640,0,U16349N344,2\,,334,c4a2c005-e345-4d11-880a-831e52937944,1877072.03674345,6270717.15030868
U15317Z7,"Pohořelice, náměstí",48.980878,16.522413,530,0,U15317N26,2\,1,335,7f9079e1-be56-48ab-95ae-7dd3d317c9dd,1839266.60183616,6271617.4133119
U16551Z2,"Hovorany, čerpací stanice",48.942828,16.985477,660,0,U16551N151,2\,,336,55d8d100-6dcd-435b-b1c4-4b447d9131b1,1890814.65052086,6265166.06367145
U16355Z1,"Morkůvky, obecní úřad",48.966503,16.863128,650,0,U16355N345,2\,,337,454e4b4b-0808-421b-b808-7a95a3a0b998,1877194.82214179,6269179.56404968
U1696Z10,ÚAN Zvonařka,49.185364,16.616151,100,0,U1696N32,2\,35,338,f6aa0ac0-b14f-461f-9de2-606ff220098e,1849701.46826414,6306372.51522554
U16554Z2,"Hovorany, rozcestí",48.948843,16.979543,660,0,U16554N152,2\,,339,ac3332ee-894a-4f32-8fae-4c1f4cb926ac,1890154.08066249,6266185.57506167
U16453Z1,"Brumovice, škola",48.962895,16.896293,650,0,U16453N346,2\,,340,1fa7ab90-8861-452e-aee8-b9f4d342e216,1880886.73305395,6268567.79542098
U15317Z5,"Pohořelice, náměstí",48.980709,16.521906,530,0,U15317N26,2\,2,341,16f55f33-c0e4-4b76-96ff-6c97c5985690,1839210.16285433,6271588.74859996
U16545Z2,"Čejč, náměstí",48.946227,16.966451,660,0,U16545N153,2\,4,342,bd196f60-8113-470c-9cf2-0abd4eb8b5a1,1888696.68588903,6265742.16149078
U16452Z1,"Brumovice, obecní úřad",48.95909,16.896238,650,0,U16452N347,2\,,343,ba5a350c-41f2-4543-8e2c-fd00b952d480,1880880.61048196,6267922.67163032
U15318Z1,"Pohořelice, Nová Ves",48.936807,16.528422,540,0,U15318N50,2\,,344,6d5cc5d5-c78a-4bcc-a726-00e63a7cecb7,1839935.52065634,6264145.65836472
U16462Z2,Terezín,48.956778,16.940897,650,0,U16462N154,2\,,345,1100ee83-41b3-4620-a3a9-1b9acfc32c23,1885852.0276213,6267530.70454866
U16454Z1,"Brumovice, železniční stanice",48.947167,16.905878,650,0,U16454N348,2\,,346,7d152a9d-3fed-4941-9094-57ec89ccb011,1881953.73037321,6265901.48937946
U15427Z1,"Pasohlávky, rozcestí Ivaň",48.918193,16.556709,540,0,U15427N49,2\,,347,3dc4ef4a-6101-484a-aa71-17b0755e214a,1843084.41509241,6260991.84024672
U16460Z2,"Krumvíř, statek",48.981398,16.923568,640,0,U16460N155,2\,,348,f9a03e58-ed62-4972-84dd-b178d5aaad0d,1883922.97216534,6271705.6130352
U15539Z1,"Kobylí, statek",48.942318,16.897075,650,0,U15539N349,2\,,349,3739e153-54b5-48fd-96f8-7577321a8f1f,1880973.78489575,6265079.62696031
U15428Z1,"Pasohlávky, u kostela",48.90308,16.54164,540,0,U15428N48,2\,,350,428fd772-92b5-4a92-99a1-92f0651eabbd,1841406.94168565,6258432.06998507
U16461Z2,"Krumvíř, železniční stanice",48.985013,16.917217,640,0,U16461N156,2\,,351,d36dc5d6-8676-455e-ab89-d44f07dc645f,1883215.98207931,6272318.79616449
U15538Z1,Kobylí,48.931883,16.884127,650,0,U15538N350,2\,,352,5ce569e0-da18-4007-a185-4bf155fea2de,1879532.42012896,6263311.25794704
U15558Z3,Drnholec,48.857435,16.487133,551,0,U15558N47,2\,,353,15030a25-9418-468a-8155-b27c1d1146ea,1835339.25020098,6250705.62644077
U16457Z2,"Krumvíř, obecní úřad",48.98897,16.91042,640,0,U16457N157,2\,,354,2bed3aa9-db47-4407-80ee-a198fa5e62fb,1882459.34350039,6272990.04097539
U15540Z1,"Kobylí, škola",48.928757,16.886635,650,0,U15540N351,2\,,355,e9208a75-589f-465d-9845-2a9be0664fe9,1879811.60941187,6262781.58178385
U15565Z1,"Brod nad Dyjí, obecní úřad",48.874886,16.534544,540,0,U15565N46,2\,,356,c05ab7c3-bdfa-45d7-86cc-904a3af949b8,1840617.01857898,6253658.76846894
U16466Z2,"Krumvíř, supermarket",48.993555,16.893235,640,0,U16466N158,2\,,357,3dbb203c-0688-4f59-a309-7805876abcda,1880546.31805111,6273767.8830992
U15541Z1,"Vrbice, Jednota",48.916225,16.895935,650,0,U15541N352,2\,,358,d1aa0e94-75de-4e71-9ccd-e854ca2f7aff,1880846.88067625,6260658.46562738
U15543Z1,"Dolní Dunajovice, Hlavní",48.857567,16.586967,552,0,U15543N45,2\,,359,04b01137-d096-4340-99e8-aeab3880d592,1846452.72024483,6250727.96024989
U16509Z11,"Nesovice, železniční stanice",49.149167,17.081111,655,0,U16509N400,2\,,360,37f1614b-50fe-4c74-a374-19d6181b4a91,1901460.57870338,6300209.9191489
U16343Z2,"Klobouky u Brna, Nádražní",48.994572,16.878598,640,0,U16343N159,2\,,361,69193d68-291a-4934-a58b-d1e84b0b6630,1878916.93466437,6273940.42615626
U15542Z1,"Vrbice, obecní úřad",48.912783,16.891812,650,0,U15542N353,2\,,362,7932f816-b385-459d-88d9-b8124bf31356,1880387.91041571,6260075.43041051
U15544Z1,"Dolní Dunajovice, Jednota",48.854737,16.592543,552,0,U15544N44,2\,,363,3f3b6a1f-67d3-4dee-914f-f84e935e66b6,1847073.4377255,6250249.14982128
U16348Z2,"Klobouky u Brna, samoobsluha",48.995153,16.866834,640,0,U16348N160,2\,,364,2d8a069a-2e86-434b-992e-0b1f29379d3c,1877607.37217467,6274038.99953289
U16650Z51,"Kyjov, železniční stanice",49.013889,17.120833,675,0,U16650N401,2\,,365,4cd1c735-6236-4636-9af2-97c26b7e01c4,1905882.41151667,6277218.39538767
U15512Z1,"Bořetice, u Floriánka",48.910757,16.858672,555,0,U15512N354,2\,,366,baea8ec1-ed7a-422c-bc0b-c53f94c33789,1876698.78249082,6259732.26808968
U15545Z1,"Dolní Dunajovice, rozcestí",48.850615,16.60982,552,0,U15545N43,2\,,367,ab42a3e2-6092-4b90-a189-ba558a932000,1848996.70456793,6249551.79308795
U16345Z2,"Klobouky u Brna, náměstí",48.99538,16.85736,640,0,U16345N161,2\,1,368,1e30c8c7-5cf3-40d9-b6ad-8bb6563132a8,1876552.7313189,6274077.51302336
U26802Z11,Vracov,48.976457,17.221155,685,0,U26802N402,2\,,369,3ef32ee7-d2c1-4009-a6e3-1946141cc419,1917050.20547204,6270867.58321596
U15511Z1,Bořetice,48.91189,16.854014,555,0,U15511N355,2\,,370,54b31497-e8f9-4922-936e-9a4632400d63,1876180.2563027,6259924.1730427
U15701Z1,"Bavory, rozcestí",48.830593,16.612673,552,0,U15701N42,2\,,371,170ebece-eae6-4e95-a101-af2aa2fb5ed0,1849314.29907516,6246165.30322741
U16347Z2,"Klobouky u Brna, rozcestí",49.000636,16.862186,640,0,U16347N162,2\,,372,bc3c65ef-ef73-4755-8bd5-d39f67377a2d,1877089.95918147,6274969.31058886
U16908Z11,"Bzenec, železniční stanice",48.969173,17.263183,695,0,U16908N403,2\,,373,8ca2b9f2-4234-4808-91d6-01a6206c0e65,1921728.7410311,6269632.31489886
U15513Z1,"Bořetice, železniční stanice",48.916475,16.852765,555,0,U15513N356,2\,,374,e7b8a472-ed8e-4bb8-a265-e6b01280d6ff,1876041.2182587,6260700.81431723
U15702Z1,"Mikulov, Brněnská",48.812088,16.630516,571,0,U15702N41,2\,,375,a64a8823-3d6e-4beb-bf0c-9288dd72ed58,1851300.57274939,6243036.59951535
U16344Z2,"Klobouky u Brna, Martinice, rozcestí",49.013667,16.828293,640,0,U16344N163,2\,,376,2fbaa86a-af5d-402a-8cbe-b3e679c9b75c,1873317.00768001,6277180.71620816
U19316Z13,"Veselí nad Moravou, železniční stanice",48.948694,17.382439,935,0,U19316N404,2\,,377,f6ae263a-79fc-46fd-a552-945a7ef17743,1935004.25822514,6266160.31884786
U15517Z1,"Němčičky, u mlýna",48.933338,16.834867,555,0,U15517N357,2\,,378,316ceeb4-875a-497b-b6d4-4ee4395201ca,1874048.82201248,6263557.80758699
U15703Z1,"Mikulov, 22. dubna",48.805487,16.633496,571,0,U15703N51,2\,,379,53bbe6ba-4202-453e-b7fa-8f390eb87c30,1851632.30483195,6241920.82528184
U15226Z2,Těšany,49.039503,16.770935,525,0,U15226N164,2\,,380,8793bcdf-c52f-42d5-b64a-af7bdbc387ca,1866931.94432709,6281566.88664995
U29404Z11,Uherský Ostroh,48.981817,17.403441,935,0,U29404N405,2\,,381,0cf1bd3c-4b19-4381-a604-50f7d150d292,1937342.19017078,6271776.68232789
U15518Z1,"Němčičky, ZD",48.935805,16.828869,555,0,U15518N358,2\,,382,7780d057-dbf6-4eed-84df-484cb7a8ac4b,1873381.12770671,6263975.85697126
U30314Z1,Ostrožská Nová Ves,49.009594,17.436368,947,0,U30314N406,2\,,383,cd980b16-1aae-4f9e-8247-0a24fac03dc9,1941007.60704413,6276489.45189112
U15227Z2,"Těšany, u váhy",49.041007,16.765215,525,0,U15227N165,2\,,384,dea000f3-e1eb-490d-8cb2-3ca6d0abcda5,1866295.19683975,6281822.29047013
U15515Z1,"Němčičky, střed",48.934927,16.821875,555,0,U15515N359,2\,,385,66e2ec11-a926-4f55-87f7-9791276b3d90,1872602.5591881,6263827.07172562
U31025Z2,Kunovice zastávka,49.038039,17.461023,957,0,U31025N407,2\,,386,5077b5d2-4ea3-45b6-b0a8-8589f76b5e42,1943752.18908964,6281318.28290224
U15223Z2,"Moutnice, střed",49.049157,16.73739,525,0,U15223N166,2\,,387,3313715e-b63b-4c86-a338-5a465b6e6cd9,1863197.73200843,6283206.42822739
U15516Z1,"Němčičky, transformátor",48.9334,16.818862,555,0,U15516N360,2\,,388,6b6e9e60-1290-4c7e-8067-42a6a40b7eb0,1872267.15356234,6263568.31364191
U16503Z11,"Nemotice, železniční stanice",49.133056,17.115,655,0,U16503N408,2\,,389,b6916b88-7134-4501-91aa-0b84d8ddab87,1905233.08492688,6297468.44405429
U15232Z2,"Moutnice, Rozařín",49.05312,16.737877,525,0,U15232N167,2\,,390,ee415788-d2cc-4dc1-9eef-431fd6b459fc,1863251.94460045,6283879.55781181
U15514Z1,"Němčičky, rozcestí",48.936578,16.816049,555,0,U15514N361,2\,,391,7944719c-aad4-4340-9842-aeee7c6b665c,1871954.01183474,6264106.85115896
U26603Z2,Kyjov zastávka,49.003117,17.124022,675,0,U26603N409,2\,,392,19fe80ab-f5f6-4ccb-8505-285c7ed548c1,1906237.40937281,6275390.3002415
U15167Z1,"Měnín, rozcestí",49.087318,16.716476,610,0,U15167N168,2\,,393,fc078dbb-8aea-43a2-966b-10ee0cfb8356,1860869.59617798,6289690.43997724
U1573Z11,"Slatina, nádraží",49.169478,16.682148,101,0,U1573N410,2\,,394,da8ada69-7812-47b1-8d80-cf40d79f381a,1857048.22069803,6303667.34403125
U16138Z4,Telnice,49.1024,16.717463,610,0,U16138N169,2\,,395,2dffea19-a752-4025-8508-b1e5be5ecd7c,1860979.46851539,6292254.42660828
U26801Z11,Vlkoš,48.987806,17.163569,685,0,U26801N411,2\,,396,d858a550-ae0d-41a8-a7cf-d2300bec2d06,1910639.76127522,6272792.58056157
U16147Z2,"Sokolnice, rozvodna",49.114771,16.705095,610,0,U16147N170,2\,,397,aea6f169-336c-43bb-be1f-4aecc6ebda0f,1859602.66905326,6294358.11662295
U19316Z12,"Veselí nad Moravou, železniční stanice",48.948694,17.382439,935,0,U19316N404,2\,,398,60b7c258-b307-474a-9e33-347e3666c65b,1935004.25822514,6266160.31884786
U1681Z4,"Tuřany, smyčka",49.142326,16.666375,101,0,U1681N171,1\,,399,429fbb7d-0473-4a71-aae5-43267aad031d,1855292.37836974,6299045.73411016
U16908Z10,"Bzenec, železniční stanice",48.969173,17.263183,695,0,U16908N403,2\,,400,ded2d902-19c2-444d-a5fb-cdf21eef3179,1921728.7410311,6269632.31489886
U1131Z2,Hanácká,49.146706,16.667371,101,0,U1131N172,2\,,401,fb950504-6b0a-409d-82aa-f6b745dbceff,1855403.25258257,6299791.0935373
U26802Z10,Vracov,48.976457,17.221155,685,0,U26802N402,2\,,402,2e44d192-d498-4dd0-ac1a-612769cd2de5,1917050.20547204,6270867.58321596
U1191Z2,Ivanovické náměstí,49.153629,16.653755,101,0,U1191N173,2\,,403,f1b0d19e-e732-434a-a10c-0e0603bd15be,1853887.52639593,6300969.33826784
U26801Z10,Vlkoš,48.987806,17.163569,685,0,U26801N411,2\,,404,91a7ccfd-aff2-46cc-9eed-0c1f8bdc7f16,1910639.76127522,6272792.58056157
U1533Z2,Ráječek,49.161397,16.637387,101,0,U1533N174,2\,,405,59c524a0-d291-42f8-b97b-0a37407419f5,1852065.44897063,6302291.59196558
U26603Z1,Kyjov zastávka,49.003117,17.124022,675,0,U26603N409,2\,,406,6e6e89c3-fc2b-4e4b-a5fd-1a99d98df17b,1906237.40937281,6275390.3002415
U1361Z4,Mariánské náměstí,49.177094,16.621935,101,0,U1361N175,1\,,407,108c1b50-e3b7-4441-b8f0-b54a9cc2e943,1850345.34019889,6304964.13760019
U16650Z50,"Kyjov, železniční stanice",49.013889,17.120833,675,0,U16650N401,2\,,408,d7659729-d1b6-4fd8-b115-be8dc135373e,1905882.41151667,6277218.39538767
U1266Z4,Konopná,49.179332,16.621811,100,0,U1266N176,2\,,409,4e876772-aa53-448f-b0f9-fd7ec0c212ac,1850331.53658203,6305345.24486067
U16604Z10,"Kyjov, Bohuslavice, železniční stanice",49.055833,17.118917,675,0,U16604N412,2\,,410,7d9b727d-cab4-42e4-b878-cbc794059156,1905669.12337231,6284340.40141133
U1696Z21,ÚAN Zvonařka,49.185364,16.616151,100,0,U1696N32,2\,,411,4732fda6-3084-44d2-a4fb-d0cbfd1fe8c2,1849701.46826414,6306372.51522554
U26601Z1,Jestřabice,49.088889,17.113333,665,0,U26601N413,2\,,412,ced65b9d-d09f-4f23-bbca-21d91114610c,1905047.51533572,6289957.47849246
U16608Z12,"Kyjov, aut. st.",49.006598,17.124015,675,0,U16608N105,2\,10,413,16f9f962-626d-430e-be67-41abf3ed989a,1906236.63013638,6275981.01072308
U16503Z10,"Nemotice, železniční stanice",49.133056,17.115,655,0,U16503N408,2\,,414,85202622-9492-4ddf-a5df-31f8c86f6ba7,1905233.08492688,6297468.44405429
U16820Z1,"Vlkoš, Tesko",48.987033,17.172742,685,0,U16820N177,2\,,415,aa5740dd-4db7-4b01-93fd-24081e824cf2,1911660.89496426,6272661.45175306
U16628Z10,"Brankovice, železniční stanice",49.150361,17.13375,655,0,U16628N414,2\,,416,5f7decd7-673e-49fa-a6ad-d8924bef2f7b,1907320.32537925,6300413.12769254
U16823Z1,"Vracov, Slokov",48.981753,17.20729,685,0,U16823N178,2\,,417,d00d6005-b686-40cb-99e1-3a600c414d90,1915506.76073219,6271765.8268364
U16509Z10,"Nesovice, železniční stanice",49.149167,17.081111,655,0,U16509N400,2\,,418,3fa42909-5146-4668-9347-08e7cf81521a,1901460.57870338,6300209.9191489
U16822Z1,"Vracov, obecní úřad",48.97962,17.219452,685,0,U16822N179,2\,,419,dc397aeb-fcce-4339-a42d-55d7c6b19649,1916860.62837922,6271404.04163337
U16463Z50,"Bučovice, železniční stanice",49.145619,16.999658,645,0,U16463N399,2\,,420,ca39a8ba-265b-4f91-a93c-6b16bb794314,1892393.2722198,6299606.10892122
U16903Z1,"Bzenec, Nový Svět",48.97298,17.251258,695,0,U16903N180,2\,,421,8173c59e-2f27-4e00-b6df-fe11331d916d,1920401.25610339,6270277.90832182
U16333Z10,"Slavkov u Brna, žel. st.",49.14495,16.873475,635,0,U16333N256,2\,,422,3904c9ec-2dd9-4d69-bfb3-1f16173df65d,1878346.64491303,6299492.261161
U16901Z1,"Bzenec, náměstí",48.97278,17.267467,695,0,U16901N181,2\,,423,553c3c12-fbe2-4f90-a71b-8503f8d38cd5,1922205.63372966,6270243.99097079
U1573Z10,"Slatina, nádraží",49.169478,16.682148,101,0,U1573N410,2\,,424,21f1cd25-511c-469a-abe8-11b9f43a3d17,1857048.22069803,6303667.34403125
U16907Z1,"Bzenec, ZŠ",48.970447,17.279397,695,0,U16907N182,2\,,425,0e33b5f3-f801-48fa-9af4-a70885ab8d1a,1923533.67525482,6269848.35512158
U11001Z1,Brno-Černovice,49.188984,16.631233,100,0,U11001N415,2\,,426,b666c8b1-df87-45bb-8352-b2b51234fa19,1851380.38882429,6306989.07381563
U16900Z1,"Bzenec, Doubrava",48.961827,17.286975,695,0,U16900N183,2\,,427,934d4f78-092f-4220-8009-ffa73c502c80,1924377.25435605,6268386.7149706
U31025Z1,Kunovice zastávka,49.038454,17.46113,957,0,U31025N407,2\,,428,88eff1af-cafe-408d-a09f-4f8048393f60,1943764.10027515,6281388.75384989
U30314Z2,Ostrožská Nová Ves,49.009975,17.436797,947,0,U30314N406,2\,,429,5aec9000-9944-46ab-8c7a-1f282bac79a4,1941055.36310568,6276554.11232314
U29404Z10,Uherský Ostroh,48.982198,17.403538,935,0,U29404N405,2\,,430,47e510fd-48ca-491c-a280-c8f305365e07,1937352.98816139,6271841.30671413
U16136Z11,"Šlapanice, železniční zastávka",49.163271,16.718638,610,0,U16136N416,2\,,431,c70df895-4713-4959-8ae5-24346e947bc1,1861110.26891707,6302610.6116153
U17446Z11,"Vyškov, železniční stanice",49.277222,16.990833,740,0,U17446N231,2\,,432,fee90330-a009-4fe2-83ea-42b362119aff,1891410.87771355,6322031.74837419
U27501Z2,Hoštice-Heroltice,49.291389,17.057778,750,0,U27501N417,2\,,433,0bf99069-02d9-4055-a3e1-1f30f1924d06,1898863.1610247,6324449.42217262
U17514Z21,"Ivanovice na Hané, aut. st.",49.306111,17.086945,750,0,U17514N369,2\,,434,98e9784e-af06-4277-98e9-26dc506207fc,1902110.01661267,6326962.54593437
U27502Z2,Chvalkovice na Hané,49.321667,17.111389,750,0,U27502N418,2\,,435,4e165fc5-af2a-4455-976d-06d33ca5ba1f,1904831.11024562,6329618.85398742
U27503Z2,Nezamyslice,49.336,17.1625,765,0,U27503N368,2\,,436,30870cb5-9a56-4fd4-82df-87184d9dbe9b,1910520.76073956,6332067.0681221
U27503Z1,Nezamyslice,49.336,17.1625,765,0,U27503N368,2\,,437,0e462683-9e67-4761-a99a-9829091308c0,1910520.76073956,6332067.0681221
U27502Z1,Chvalkovice na Hané,49.321667,17.111389,750,0,U27502N418,2\,,438,dd99d8d8-9816-44d9-a427-3db82ece421a,1904831.11024562,6329618.85398742
U17514Z20,"Ivanovice na Hané, aut. st.",49.306111,17.086945,750,0,U17514N369,2\,,439,86500617-05d3-423c-bade-9bd432bae30a,1902110.01661267,6326962.54593437
U27501Z1,Hoštice-Heroltice,49.291389,17.057778,750,0,U27501N417,2\,,440,b239bf03-0365-4895-aa9a-b859ae0fa5a3,1898863.1610247,6324449.42217262
U17446Z10,"Vyškov, železniční stanice",49.277222,16.990833,740,0,U17446N231,2\,,441,7ea2dd91-ae2c-49d6-97fd-22ebe2ddff06,1891410.87771355,6322031.74837419
U15637Z10,"Hrušovany nad Jevišovkou, žel. st.",48.810029,16.383137,560,0,U15637N9,2\,,442,5fe794b7-dcf1-4f71-acbc-046bedb3edd5,1823762.46843644,6242688.54873543
U18208Z10,"Božice, železniční stanice",48.823282,16.287832,820,0,U18208N419,2\,,443,551a7bdb-da1d-4fad-bd0b-a4618bf740e7,1813153.16436639,6244929.06938467
U28101Z10,Hodonice,48.841514,16.164403,810,0,U28101N420,2\,,444,c1fc056a-4396-4690-b669-ba4160fc80cb,1799413.11093726,6248012.29631778
U28102Z10,Dyje,48.850047,16.1205,810,0,U28102N421,2\,,445,02c83179-2e0b-4dd0-9a28-c68e83ea905f,1794525.85133297,6249455.70379324
U18009Z20,"Znojmo, autobusové nádraží",48.852761,16.059287,800,0,U18009N38,2\,,446,a6f710a7-d58d-4410-8376-32f7354980c7,1787711.65134304,6249914.84452344
U15729Z14,"Břeclav, autobusové nádraží",48.753851,16.893169,575,0,U15729N422,2\,,447,8de97d7c-9ee5-471f-943c-eca5276b299a,1880538.97096471,6233197.79920507
U15828Z10,"Valtice, železniční zastávka",48.748776,16.762369,582,0,U15828N423,2\,,448,fba8292c-038a-4e0b-996d-e1875a9525fe,1865978.38156895,6232340.9481078
U15811Z10,"Valtice, železniční stanice",48.74683,16.745117,582,0,U15811N424,2\,,449,9d0a53f6-cb21-4a5c-91d8-c677b032a2fb,1864057.89771379,6232012.4129857
U25701Z10,Sedlec u Mikulova,48.774564,16.699006,582,0,U25701N425,2\,,450,31b86958-6830-4183-a26c-1e16a8160c06,1858924.84467382,6236695.8313774
U15714Z10,"Mikulov, železniční stanice",48.802203,16.625492,571,0,U15714N39,2\,,451,bfeb5297-e3a6-4477-8b47-e694d3db23c0,1850741.30362764,6241365.78188626
U25601Z10,Březí,48.812925,16.554169,561,0,U25601N426,2\,,452,7d8ff6fb-0f87-4f26-8d35-b0f18c73431c,1842801.66358579,6243178.08903272
U25602Z10,Dobré Pole,48.820008,16.533833,561,0,U25602N427,2\,,453,fc857ecb-d556-4b4a-af68-3d3fe574df69,1840537.87042102,6244375.51963976
U15563Z10,"Novosedly, železniční stanice",48.825719,16.49405,551,0,U15563N428,2\,,454,57d6ac5d-986e-42c3-93bd-e8bb7081a1d0,1836109.24711879,6245341.12729255
U25505Z10,Jevišovka,48.820272,16.467125,551,0,U25505N429,2\,,455,7cfc75f4-f25a-4630-a719-f445a20a4215,1833111.96982918,6244420.15395394
U25702Z10,Boří les,48.738078,16.866374,575,0,U25702N430,2\,,456,6d438620-0804-4373-8337-8df519983a7d,1877556.16520891,6230535.00631787
U15637Z11,"Hrušovany nad Jevišovkou, žel. st.",48.810029,16.383137,560,0,U15637N9,2\,,457,a0948a31-04eb-412c-a4c3-cc086fbd4a08,1823762.46843644,6242688.54873543
U25505Z11,Jevišovka,48.820272,16.467125,551,0,U25505N429,2\,,458,661cd78d-8b89-445a-b697-92adec96de77,1833111.96982918,6244420.15395394
U15563Z11,"Novosedly, železniční stanice",48.825719,16.49405,551,0,U15563N428,2\,,459,c5becbf7-8d1f-4057-8a50-85472573da20,1836109.24711879,6245341.12729255
U25602Z11,Dobré Pole,48.820008,16.533833,561,0,U25602N427,2\,,460,4fe403e0-36a1-4924-926f-d4ef057dba22,1840537.87042102,6244375.51963976
U25601Z11,Březí,48.812925,16.554169,561,0,U25601N426,2\,,461,ce070779-6036-413b-9afd-456a741726a9,1842801.66358579,6243178.08903272
U15714Z11,"Mikulov, železniční stanice",48.802203,16.625492,571,0,U15714N39,2\,,462,f5639fac-13e8-45f4-b411-2258a585b2c3,1850741.30362764,6241365.78188626
U25701Z11,Sedlec u Mikulova,48.774564,16.699006,582,0,U25701N425,2\,,463,55dd6752-f786-4d19-b19d-344000fef4f6,1858924.84467382,6236695.8313774
U15811Z11,"Valtice, železniční stanice",48.74683,16.745117,582,0,U15811N424,2\,,464,32cf19e6-a3b6-47e6-898c-9007daeaa814,1864057.89771379,6232012.4129857
U15828Z11,"Valtice, železniční zastávka",48.748776,16.762369,582,0,U15828N423,2\,,465,75b65276-aaf4-4aea-b7b4-461305de2618,1865978.38156895,6232340.9481078
U25702Z11,Boří les,48.738078,16.866374,575,0,U25702N430,2\,,466,8d36c15e-6939-4c37-9dee-b2d1a33159c5,1877556.16520891,6230535.00631787
U15729Z15,"Břeclav, autobusové nádraží",48.753851,16.893169,575,0,U15729N422,2\,,467,bb7f923d-ff65-4435-b1f0-28c29aa9eb92,1880538.97096471,6233197.79920507
U18009Z21,"Znojmo, autobusové nádraží",48.852761,16.059287,800,0,U18009N38,2\,,468,97c12993-0daa-4bba-9669-c4bc8d5ac1fe,1787711.65134304,6249914.84452344
U28102Z11,Dyje,48.850047,16.1205,810,0,U28102N421,2\,,469,3966666f-ccd5-4e64-884b-060dcaaabb2b,1794525.85133297,6249455.70379324
U28101Z11,Hodonice,48.841514,16.164403,810,0,U28101N420,2\,,470,8e810539-f67f-476b-8dba-87b3e938be2f,1799413.11093726,6248012.29631778
U18208Z11,"Božice, železniční stanice",48.823282,16.287832,820,0,U18208N419,2\,,471,1a42c7e8-b502-4101-a8d2-71bcc3bfeaee,1813153.16436639,6244929.06938467
U11002Z11,Brno-Horní Heršpice,49.167404,16.60686,101,0,U11002N431,2\,,472,f6c7de2e-8f86-4997-ad52-b6bec7becd40,1848667.19887518,6303314.23391349
U15135Z11,"Popovice, u tratě",49.103463,16.605647,510,0,U15135N432,2\,,473,9d982bf5-fabb-45b4-8520-62e179a976c7,1848532.16833285,6292435.16928723
U15181Z11,"Rajhrad, železniční stanice",49.084966,16.60532,510,0,U15181N73,2\,,474,0e04bfb8-a12d-459b-8430-1b1cb082473e,1848495.76685936,6289290.66290711
U25201Z11,"Vojkovice nad Svratkou, žel. st.",49.056208,16.597445,525,0,U25201N433,2\,,475,424af56d-e119-4d83-9787-69816ae7f74a,1847619.12586936,6284404.10274476
U15222Z11,"Hrušovany u Brna, žel. st.",49.034228,16.591501,525,0,U15222N434,2\,,476,23e0a650-8e0d-456d-b0d2-409b9bef142b,1846957.44281609,6280671.16634004
U15306Z11,"Žabčice, žel. st.",49.010278,16.594722,535,0,U15306N435,2\,,477,ba784d8e-d99c-4f26-a297-93df856978f2,1847316.00289593,6276605.53553962
U15307Z11,"Vranovice, žel.st.",48.964528,16.604187,535,0,U15307N436,2\,,478,e196b329-9c51-44ef-a5db-b060f4831340,1848369.64187629,6268844.67967488
U25401Z11,Pouzdřany,48.942025,16.630527,545,0,U25401N437,2\,,479,502d1368-36a3-43ca-9974-e9a506076876,1851301.79726379,6265029.96862183
U25402Z11,Popice,48.924332,16.668084,545,0,U25402N438,2\,,480,76ab1805-5301-40b6-b67a-84b910021a15,1855482.62337951,6262031.85695719
U15425Z11,"Šakvice, železniční stanice",48.912883,16.70557,545,0,U15425N439,2\,,481,3bc4d6dc-de35-4062-bd68-eb086d2bb0e8,1859655.54581139,6260092.36869394
U15403Z11,"Hustopeče, autobusové nádraží",48.93752,16.735901,545,0,U15403N440,2\,,482,b6122229-c19f-4282-8825-f61da8a581db,1863031.97728664,6264266.48718038
U15403Z10,"Hustopeče, autobusové nádraží",48.93752,16.735901,545,0,U15403N440,2\,,483,d0c165e5-72b1-4a4b-a516-1d81ca91e06c,1863031.97728664,6264266.48718038
U15425Z10,"Šakvice, železniční stanice",48.912883,16.70557,545,0,U15425N439,2\,,484,359fc436-fd09-4407-ba53-af741fb79233,1859655.54581139,6260092.36869394
U25402Z10,Popice,48.924332,16.668084,545,0,U25402N438,2\,,485,41e09e9e-21d3-415d-81dd-7488f09c4e52,1855482.62337951,6262031.85695719
U25401Z10,Pouzdřany,48.942025,16.630527,545,0,U25401N437,2\,,486,19331247-fdb2-42c0-b97b-f5ff8c328694,1851301.79726379,6265029.96862183
U15307Z10,"Vranovice, žel.st.",48.964528,16.604187,535,0,U15307N436,2\,,487,e044192f-d45c-4182-b767-bb1f92efc9d1,1848369.64187629,6268844.67967488
U14557Z1,"Miroslav, Kašenec, státní silnice",48.918435,16.33352,459,0,U14557N92,2\,,488,62297460-75bf-44a0-95fa-696fbcf547c1,1818239.12926175,6261032.83539032
U15306Z10,"Žabčice, žel. st.",49.010278,16.594722,535,0,U15306N435,2\,,489,5818c0e8-aa9d-4e5d-9ad3-d8659994214b,1847316.00289593,6276605.53553962
U15222Z10,"Hrušovany u Brna, žel. st.",49.034228,16.591501,525,0,U15222N434,2\,,490,8fd3fe28-fd59-47d2-bf0a-9f4ef90773f4,1846957.44281609,6280671.16634004
U15181Z10,"Rajhrad, železniční stanice",49.084966,16.60532,510,0,U15181N73,2\,,491,83875594-7ede-49f6-85d0-b26f3980e089,1848495.76685936,6289290.66290711
U15140Z10,"Modřice, železniční stanice",49.133256,16.606209,510,0,U15140N390,2\,,492,15224c8d-e997-4e70-af69-1103e1ceadbe,1848594.72988668,6297502.47093136
U1331Z10,"Lesná, nádraží",49.220432,16.627505,101,0,U1331N441,2\,,493,3a71f498-693b-4f50-8895-cc62b00b1afc,1850965.38976261,6312347.19810315
U1557Z10,"Řečkovice, nádraží",49.250794,16.590446,101,0,U1557N442,2\,,494,090a7feb-940b-4cca-9ab7-79eb2025351e,1846840.0007533,6317523.52515549
U13109Z10,"Česká, železniční stanice",49.284546,16.566731,310,0,U13109N443,2\,,495,365a4750-6bfc-4179-9c71-debc95bcd510,1844200.05902914,6323281.54114841
U13206Z10,"Čebín, železniční stanice",49.319722,16.465278,320,0,U13206N444,2\,,496,4d3bf6d9-d93c-41d2-9740-dd2bdf9a7913,1832906.36272969,6329286.68421059
U13306Z10,"Hradčany, železniční stanice",49.333603,16.438056,330,0,U13306N445,2\,,497,bc1fdbbf-68e8-4388-8718-3cf26e21a94a,1829876.02355132,6331657.58785146
U13411Z10,"Dolní Loučky, železniční stanice",49.356389,16.346945,340,0,U13411N446,2\,,498,6bfb9caf-1936-4b2f-b84c-db36a794de86,1819733.59342565,6335550.93398529
U13425Z10,"Řikonín, železniční stanice",49.365833,16.305833,340,0,U13425N447,2\,,499,489a7b47-1cd7-4f4e-bbd6-3e18170c1fb5,1815157.02652016,6337165.11847795
U13454Z10,"Níhov, železniční stanice",49.335275,16.269007,345,0,U13454N448,2\,,500,5cf97f04-0940-4b64-a4f2-55fd020a6f81,1811057.5749522,6331943.21403846
U30008Z1,Vlkov u Tišnova,49.323611,16.211111,355,0,U30008N449,2\,,501,5e01b64a-d4b4-4b20-93b9-85b242de2156,1804612.62171324,6329950.86609267
U15557Z1,"Mackovice, rozcestí",48.900637,16.292692,459,0,U15557N91,2\,,502,7c43f88b-f8e2-4518-9df1-e173a95eaacd,1813694.17709164,6258018.35859202
U18217Z1,"Oleksovice, rozcestí",48.887532,16.260192,820,0,U18217N90,2\,,503,e47ec980-1c3f-433f-9ad4-be41c9d62eb2,1810076.29364086,6255799.42911576
U18215Z1,"Lechovice, zámek",48.875338,16.236347,820,0,U18215N89,2\,,504,ff9232d6-ec30-4f44-9800-c0212b025e85,1807421.8803829,6253735.27176444
U18214Z1,"Lechovice, obecní úřad",48.872558,16.222179,820,0,U18214N88,2\,,505,0e3ffe02-e035-46f1-a1e5-dbb2adc62dfa,1805844.70583734,6253264.75359378
U18058Z2,"Znojmo, nám.Republiky",48.853569,16.053823,800,0,U18058N278,2\,,506,59b1e97a-c0b1-487a-8f06-385353e6d611,1787103.40164534,6250051.542666
U15324Z2,"Pohořelice, Velký Dvůr",48.962313,16.533415,530,0,U15324N54,2\,,507,6ec1d4a4-d643-4c9f-bcaf-f933f2454969,1840491.33887387,6268469.11626778
U15316Z2,"Pohořelice, Mariánský dvůr",48.956485,16.530842,530,0,U15316N53,2\,,508,edd480a1-0add-423c-a77d-a57b2883fd1b,1840204.91382406,6267481.03181679
U15326Z2,"Pohořelice, Vilémov",48.948333,16.531333,530,0,U15326N52,2\,,509,12d34006-930e-4ace-b6bc-97f28ea3a2b5,1840259.57169404,6266099.12793115
U14543Z3,"Hostěradice, náměstí",48.950522,16.259511,459,0,U14543N279,2\,,510,62942e0b-21d3-4154-8581-81b5f6b7bf96,1810000.48506763,6266470.1788186
U18224Z1,Vítonice,48.916498,16.20106,820,0,U18224N280,2\,,511,518f8c94-fb49-4812-9100-317ee9e82e7d,1803493.74951127,6260704.71040734
U18221Z1,"Prosiměřice, u bufetu",48.903893,16.190322,810,0,U18221N281,2\,,512,751b7167-3877-4753-8300-38e42defec12,1802298.40081913,6258569.75247341
U18135Z1,"Těšetice, na hlavní",48.887956,16.157624,810,0,U18135N282,2\,,513,804c7fc9-efc8-4c62-922d-4d3aa0a0d993,1798658.47610918,6255871.2113964
U18116Z1,"Suchohrdly, Purkrábka",48.868878,16.106653,800,0,U18116N283,2\,,514,5e126ed2-10e9-4b95-baf1-366b5d3c4787,1792984.41034395,6252641.94960597
U18115Z1,"Suchohrdly, kurty",48.868297,16.096222,800,0,U18115N284,2\,,515,63d8c1a1-0852-4e9a-8b42-c0ff843a7bd6,1791823.23673549,6252543.62522834
U18110Z2,"Suchohrdly, prodejna",48.866425,16.089202,800,0,U18110N285,2\,,516,9073dc3b-08a0-4a1a-933b-f46e3d220f95,1791041.77391012,6252226.82880249
U18002Z2,"Znojmo, Suchohrdelská, hřbitov",48.857448,16.066435,800,0,U18002N286,2\,,517,7850fcbe-9ebc-4894-803d-b9bbf7f367ac,1788507.36306323,6250707.82597997
U1696Z13,ÚAN Zvonařka,49.185364,16.616151,100,0,U1696N32,2\,32,518,006c5230-34b7-4d9b-93ad-20c18287cdde,1849701.46826414,6306372.51522554
U14552Z4,"Miroslav, rozcestí",48.933498,16.362293,459,0,U14552N93,2\,2,519,2fc5e836-1379-47a9-8b9e-179e04181dd0,1821442.12497034,6263584.92001341
U14551Z2,"Miroslav, Réna",48.93358,16.337223,459,0,U14551N287,2\,,520,4ea66d72-03e8-46a0-b9cd-731f9fc5acae,1818651.34533616,6263598.81516563
U14550Z2,"Miroslav, provozovna ČAS",48.941947,16.321227,459,0,U14550N288,2\,,521,fb0b2f38-88de-430b-be31-48452462310f,1816870.67876143,6265016.74904502
U14554Z2,"Miroslav, statek",48.945973,16.317908,459,0,U14554N289,2\,,522,60be77ee-6213-4250-ba9a-01552560e528,1816501.20937149,6265699.10957635
U14546Z2,"Miroslav, autobusové nádraží",48.946832,16.313061,459,0,U14546N290,2\,4,523,ac1e47f9-dd39-4b37-b4e5-bf40fc781388,1815961.64379961,6265844.70728768
U14546Z3,"Miroslav, autobusové nádraží",48.946991,16.312997,459,0,U14546N290,2\,5,524,f0002391-6a8e-4e64-ac98-7605447b15af,1815954.5193522,6265871.6575464
U14554Z1,"Miroslav, statek",48.946,16.317705,459,0,U14554N289,2\,,525,94919481-569a-4867-962d-662db8941273,1816478.61151485,6265703.68595055
U14550Z1,"Miroslav, provozovna ČAS",48.941983,16.321138,459,0,U14550N288,2\,,526,088b61ba-df42-4d1c-aef3-7d1cdd6bdcc7,1816860.77132675,6265022.8503856
U14551Z1,"Miroslav, Réna",48.933435,16.337422,459,0,U14551N287,2\,,527,250e5d0b-a31b-49da-8ef3-ce706005e8f8,1818673.49791483,6263574.24448513
U14558Z1,"Miroslav, Kašenec, točna",48.919183,16.327708,459,0,U14558N291,2\,,528,ab10e3cb-a2ec-41a1-bd2f-6c406938e10f,1817592.14038126,6261159.54890805
U14552Z13,"Miroslav, rozcestí",48.933616,16.362524,459,0,U14552N93,2\,1,529,129f3a3d-65f5-4429-bfd5-6fbb60825ea2,1821467.83977272,6263604.91548357
U14548Z2,"Miroslav, jesle",48.945453,16.308063,459,0,U14548N292,2\,,530,4833b2d4-30f9-404a-b103-e9c149ef587e,1815405.26898463,6265610.97248232
U14542Z2,"Hostěradice, lom",48.947002,16.264753,459,0,U14542N293,2\,,531,e0b95c61-954b-4248-9ac3-c1747fedba59,1810584.02183837,6265873.52203288
U14543Z1,"Hostěradice, náměstí",48.950642,16.259606,459,0,U14543N279,2\,,532,2af7be72-889d-476d-b8b0-84fa94190400,1810011.06041926,6266490.5201328
U14543Z2,"Hostěradice, náměstí",48.950522,16.259511,459,0,U14543N279,2\,,533,2a4cb072-d7f8-4d75-896c-28046d42992d,1810000.48506763,6266470.1788186
U14542Z1,"Hostěradice, lom",48.94687,16.265652,459,0,U14542N293,2\,,534,c225c0b7-7212-4989-a366-bb197e585ea6,1810684.09806059,6265851.1482222
U14548Z1,"Miroslav, jesle",48.94488,16.30781,459,0,U14548N292,2\,,535,eec2d53b-8e50-421e-b012-84ec4a33d7ed,1815377.10515345,6265513.85324806
U18009Z3,"Znojmo, autobusové nádraží",48.851903,16.057106,800,0,U18009N38,2\,9,536,f7ea9d3f-5516-4c29-bb09-e5016e793dee,1787468.86353362,6249769.68975254
U18002Z1,"Znojmo, Suchohrdelská, hřbitov",48.85731,16.06696,800,0,U18002N286,2\,,537,9efdc812-4cd3-4b32-9f99-ab2e73e883db,1788565.80579589,6250684.47705461
U18110Z1,"Suchohrdly, prodejna",48.866397,16.089328,800,0,U18110N285,2\,,538,fea3f183-6f4b-4435-a684-a8a20a5fb26a,1791055.80016596,6252222.09048437
U18115Z2,"Suchohrdly, kurty",48.868387,16.096818,800,0,U18115N284,2\,,539,302324ea-6f0e-45d0-93ec-63328e69d4f4,1791889.583152,6252558.85612433
U18116Z2,"Suchohrdly, Purkrábka",48.868827,16.106813,800,0,U18116N283,2\,,540,21b3bb19-5ed3-4465-ba53-320bf745e9ef,1793002.22146248,6252633.31867685
U18135Z2,"Těšetice, na hlavní",48.888094,16.157841,810,0,U18135N282,2\,,541,ff1134a8-e9e2-46d1-9940-8a4ec95b78e9,1798682.63243868,6255894.57462847
U18117Z1,Bantice,48.88332,16.18455,810,0,U18117N294,2\,,542,3d84652b-13c1-496b-91e9-3abc5b01ec10,1801655.86471828,6255086.37970184
U18222Z1,Stošíkovice na Louce,48.89529,16.214773,820,0,U18222N295,2\,,543,1decbf9f-8162-4af0-8df5-718c25412d2a,1805020.27368852,6257112.93802574
U18223Z1,"Stošíkovice na Louce, rozcestí",48.890458,16.196641,810,0,U18223N296,2\,,544,779c5fdd-96f7-4444-a018-8d2e5cfe9256,1803001.82868146,6256294.80696504
U18219Z2,"Prosiměřice, hostinec",48.902718,16.192215,810,0,U18219N297,2\,,545,28386e4b-ca9e-41f2-9a36-1768ac55ebb9,1802509.12861521,6258370.76558792
U18224Z2,Vítonice,48.916333,16.201035,820,0,U18224N280,2\,,546,ee2f9613-bd8a-4dab-9e12-cda01920c1e7,1803490.966524,6260676.76023539
U18218Z2,"Oleksovice, u potoka",48.904747,16.24336,820,0,U18218N298,2\,,547,fecc90f3-d0d1-4282-9ac7-72476d10a0a7,1808202.56397183,6258714.3807712
U14543Z6,"Hostěradice, náměstí",48.950522,16.259511,459,0,U14543N279,2\,,548,6c943f13-654a-4150-a4c4-8cbf4d6a97e4,1810000.48506763,6266470.1788186
U14552Z3,"Miroslav, rozcestí",48.933616,16.362524,459,0,U14552N93,2\,1,549,aef885e1-9b06-41eb-bbfb-729622cf2f06,1821467.83977272,6263604.91548357
U15550Z2,Damnice,48.920087,16.373648,550,0,U15550N299,2\,,550,61b4b125-5a7a-4b21-bec2-933df5a0c67c,1822706.1577883,6261312.69184169
U15551Z1,Dolenice,48.909272,16.364848,550,0,U15551N300,2\,,551,ec96d936-cf08-4a7e-a924-3156fd352d26,1821726.54626932,6259480.74877005
U15551Z2,Dolenice,48.909272,16.364848,550,0,U15551N300,2\,,552,df563a0d-e553-49ab-99c2-2c80149686eb,1821726.54626932,6259480.74877005
U15550Z1,Damnice,48.920138,16.373542,550,0,U15550N299,2\,,553,e7519ed4-73e1-481e-9ad8-e80d94a75088,1822694.35792228,6261321.33162518
U15552Z3,Jiřice u Miroslavi,48.920697,16.39138,550,0,U15552N17,2\,,554,08c1aa49-3d5b-4ec2-9801-bd8abff3ae3c,1824680.07499905,6261416.03100691
U14552Z14,"Miroslav, rozcestí",48.933498,16.362293,459,0,U14552N93,2\,2,555,a2abca3e-90de-438a-9f3e-bfc38cfead4c,1821442.12497034,6263584.92001341
U14565Z2,Suchohrdly u Miroslavi,48.943012,16.363188,459,0,U14565N301,2\,,556,af84f3fa-eb35-4fe3-adf3-841ebca59268,1821541.7559146,6265197.24889779
U15632Z3,"Hrušovany nad Jevišovkou, Lidická, VÚPP",48.831517,16.401898,560,0,U15632N13,2\,,557,e160c185-f5a6-4958-bbfe-20de3a92d8e6,1825850.93340321,6246321.55735637
U15636Z2,"Hrušovany nad Jevišovkou, Znojemská",48.829857,16.394073,560,0,U15636N302,2\,,558,d02bcdac-c9b5-4343-85b5-06d1e2d14d98,1824979.85838775,6246040.84312583
U15638Z2,Pravice,48.843938,16.361952,560,0,U15638N303,2\,,559,4b3020da-2e5a-46f9-8688-aebc722eb8f2,1821404.16502398,6248422.30526155
U15546Z2,"Břežany, u hostince",48.867867,16.344198,550,0,U15546N304,2\,,560,aba352f6-7474-4157-9d7b-621638d92673,1819427.79878444,6252470.85577006
U15547Z2,"Břežany, u pošty",48.870177,16.339543,550,0,U15547N305,2\,,561,261edbb1-8b93-47a0-b230-00cb8583b0a4,1818909.6065548,6252861.78741319
U15548Z2,"Břežany, u statku",48.872375,16.33823,550,0,U15548N306,2\,,562,1dcb6ca1-6f60-4cfb-a437-7a8f1abaad7c,1818763.44406339,6253233.78155225
U15566Z2,"Břežany, osada Ležák",48.887033,16.347558,550,0,U15566N307,2\,,563,fe705946-cd11-4bcf-9945-8f852a4586e7,1819801.83227351,6255714.95027741
U16353Z1,Kašnice,48.996567,16.8829,640,0,U16353N308,2\,,564,9e6377bb-91bd-473f-ab5d-f97be8490e2d,1879395.83111376,6274278.90580763
U16356Z1,"Klobouky u Brna, hřbitov",48.998318,16.862927,640,0,U16356N309,2\,,565,5bc9f5d6-4bc6-49ec-830b-459d5afd20a2,1877172.44692414,6274575.99861724
U16342Z2,"Borkovany, Štoček",49.024797,16.812873,630,0,U16342N310,2\,,566,24bb78a2-a428-421b-9ed7-9eee204911c9,1871600.46113198,6279069.97396533
U16340Z2,Borkovany,49.028703,16.80985,630,0,U16340N311,2\,,567,8281c5b4-569b-440b-86da-e43e93cfa25c,1871263.94231131,6279733.0966638
U16341Z2,"Borkovany, Tomášov",49.029167,16.8048,630,0,U16341N312,2\,,568,d7143ef7-3e11-4a8a-9d4c-3f631562a619,1870701.7788828,6279811.8735311
U1696Z7,ÚAN Zvonařka,49.185364,16.616151,100,0,U1696N32,2\,27,569,b1d74af9-a115-4703-9173-9c5adf165e3c,1849701.46826414,6306372.51522554
U1266Z3,Konopná,49.180126,16.621339,100,0,U1266N176,2\,,570,3269e1a9-b37f-48ad-a820-334ebc85e782,1850278.99378238,6305480.458638
U1256Z3,Komárov,49.17444,16.622448,101,0,U1256N313,1\,,571,d76d911d-7f6c-44d3-9ec5-3b45facc3f3b,1850402.44709767,6304512.21236033
U1533Z1,Ráječek,49.160802,16.638242,101,0,U1533N174,2\,,572,658a4b16-5b77-42cf-928f-1dac6288c860,1852160.62713526,6302190.30490052
U1191Z1,Ivanovické náměstí,49.153066,16.653791,101,0,U1191N173,2\,,573,d9e5b590-0594-475f-aaf9-abc3292fdecb,1853891.5338976,6300873.51357283
U1131Z7,Hanácká,49.146163,16.665975,101,0,U1131N172,2\,,574,62b4a78b-76b7-4380-abda-262111d664e6,1855247.85057343,6299698.68581153
U1681Z3,"Tuřany, smyčka",49.141407,16.667828,101,0,U1681N171,1\,,575,f2a0d99b-0e64-4cb8-a227-905938e6e7e0,1855454.12558987,6298889.35313047
U16147Z1,"Sokolnice, rozvodna",49.115062,16.704663,610,0,U16147N170,2\,,576,f7307297-9044-4dc4-a568-2df91e46e5ee,1859554.57903324,6294407.60752237
U16138Z3,Telnice,49.101602,16.717823,610,0,U16138N169,2\,,577,e9181bad-2e98-4f39-8a01-ca41f9ed2be4,1861019.54353208,6292118.74462007
U15167Z2,"Měnín, rozcestí",49.087125,16.716473,610,0,U15167N168,2\,,578,ea55dc32-7966-4380-b56a-04a2cbf64c28,1860869.26221951,6289657.63442794
U15232Z1,"Moutnice, Rozařín",49.05247,16.737351,525,0,U15232N167,2\,,579,5c5970e2-22cc-48dd-8b13-ffb2bae4d97c,1863193.39054829,6283769.14933128
U15223Z1,"Moutnice, střed",49.048967,16.736746,525,0,U15223N166,2\,,580,0a90c594-9298-43d0-82ae-0b1937cf718e,1863126.04225636,6283174.15740238
U15227Z1,"Těšany, u váhy",49.041022,16.764925,525,0,U15227N165,2\,,581,38eaa756-b5a8-4625-8831-201359c9fbde,1866262.91418742,6281824.83775457
U15226Z1,Těšany,49.039299,16.771319,525,0,U15226N164,2\,,582,cf7618fb-34d5-4422-896e-7a98ecefaa8f,1866974.69101155,6281532.24470534
U16341Z1,"Borkovany, Tomášov",49.029118,16.804862,630,0,U16341N312,2\,,583,5838d9d4-b900-4c10-909d-fc4019bc79c6,1870708.68069123,6279803.55438758
U16340Z1,Borkovany,49.028483,16.809738,630,0,U16340N311,2\,,584,306ac7ed-8682-4b88-824b-389ae8a76f24,1871251.47452834,6279695.74581966
U16342Z1,"Borkovany, Štoček",49.024727,16.812867,630,0,U16342N310,2\,,585,8167a7be-e90e-4e16-b52c-bc2263dad165,1871599.79321503,6279058.09052077
U16344Z1,"Klobouky u Brna, Martinice, rozcestí",49.013442,16.828372,640,0,U16344N163,2\,,586,f7d5a54e-8949-4fe6-8334-69348f7586e1,1873325.80191978,6277142.52802201
U16347Z1,"Klobouky u Brna, rozcestí",49.000525,16.862658,640,0,U16347N162,2\,,587,c3ca9341-9309-4f48-b080-b14bfba821fe,1877142.50198112,6274950.47599174
U16345Z1,"Klobouky u Brna, náměstí",48.99538,16.85736,640,0,U16345N161,2\,1,588,becc75b2-e4d0-4df3-adbe-24dd474ce7c9,1876552.7313189,6274077.51302336
U16353Z2,Kašnice,48.996533,16.882788,640,0,U16353N308,2\,,589,aa48a9f0-864c-43df-b8d1-2e68cf863d97,1879383.36333079,6274273.13711857
U16466Z1,"Krumvíř, supermarket",48.993439,16.893299,640,0,U16466N158,2\,,590,ff0aeec8-268d-4439-a15c-53ef9f0c6d2b,1880553.44249852,6273748.20289565
U16457Z1,"Krumvíř, obecní úřad",48.988888,16.910692,640,0,U16457N157,2\,,591,8c844891-832e-425c-9eab-7b69b46ab0c6,1882489.62240189,6272976.13038283
U16461Z1,"Krumvíř, železniční stanice",48.984948,16.917183,640,0,U16461N156,2\,,592,5cbada09-5958-4a58-94be-89382142f522,1883212.19721662,6272307.77034899
U16460Z1,"Krumvíř, statek",48.981398,16.923422,640,0,U16460N155,2\,,593,130d25f9-bd62-48fc-aaeb-82f37cecb873,1883906.71951968,6271705.6130352
U16462Z1,Terezín,48.956737,16.940727,650,0,U16462N154,2\,,594,5b7f8f67-c06b-4ca9-b9ec-5137d959962a,1885833.10330786,6267523.75373927
U16545Z1,"Čejč, náměstí",48.945868,16.966935,660,0,U16545N153,2\,3,595,8cf6d3e9-c8db-40d2-acda-461621a03643,1888750.56452257,6265681.31258913
U16554Z1,"Hovorany, rozcestí",48.948342,16.979912,660,0,U16554N152,2\,,596,741abf7f-2b76-4d7a-88e7-824c00c637d6,1890195.1575546,6266100.65346109
U16551Z1,"Hovorany, čerpací stanice",48.941702,16.986192,660,0,U16551N151,2\,,597,1cce3a47-0783-4cc3-b505-3aea09523bdc,1890894.24395678,6264975.22614967
U19104Z1,"Mutěnice, škola",48.90752,17.019163,910,0,U19104N150,2\,,598,f92dc1cd-e071-4f14-8c9e-6b0b46ded5dc,1894564.55888772,6259184.01639676
U19103Z1,"Mutěnice, křižovatka",48.904497,17.028817,910,0,U19103N149,2\,,599,701b5f74-9fc6-4bdd-8bfd-d373be121f23,1895639.23725184,6258672.04202068
U19015Z1,"Hodonín, Zbrod",48.887819,17.066033,900,0,U19015N148,2\,,600,7e99370f-69e3-40a6-afa0-54afe07cd884,1899782.1034212,6255848.0175269
U15531Z1,"Velké Pavlovice, obchodní středisko",48.902075,16.818153,555,0,U15531N362,2\,,601,9bbfcc1e-f2c3-42e9-9f1e-e21eb39fc700,1872188.22804337,6258261.87517071
U16905Z1,"Bzenec, Přívoz, železniční stanice",48.936445,17.28984,695,0,U16905N184,2\,,602,cb3ba55a-8b2c-4ce9-ac18-4fd5ccc97501,1924696.18469717,6264084.31255786
U16917Z1,"Bzenec, Přívoz",48.935987,17.294041,695,0,U16917N185,2\,,603,2afb8588-4860-49e6-89e2-1a27df8f2f9b,1925163.837878,6264006.69888722
U19204Z1,"Strážnice, ATC",48.909397,17.310663,925,0,U19204N186,2\,,604,579ccc74-5eb9-449e-8fff-1e9a94d6527e,1927014.19045396,6259501.92014182
U19207Z1,"Strážnice, náměstí 17. listopadu",48.90244,17.318012,925,0,U19207N187,2\,,605,67427193-e0de-4931-84e7-807fc5bb8a26,1927832.2773918,6258323.68682194
U19205Z51,"Strážnice, aut. st.",48.898322,17.315938,925,0,U19205N188,2\,,606,19ae10d0-867c-4c3f-8f12-d94b80fd7c80,1927601.4007679,6257626.34210024
U19205Z2,"Strážnice, aut. st.",48.898393,17.315802,925,0,U19205N188,2\,7,607,d5899b65-2524-4df0-8104-6e0cd8454933,1927586.26131715,6257638.36479836
U19207Z2,"Strážnice, náměstí 17. listopadu",48.902415,17.318367,925,0,U19207N187,2\,,608,db4735b5-7555-46ea-94af-8b0c25e97522,1927871.79581103,6258319.4531328
U19204Z2,"Strážnice, ATC",48.909397,17.310663,925,0,U19204N186,2\,,609,c3c8adde-5697-45c1-af26-082b2d0b834a,1927014.19045396,6259501.92014182
U16917Z2,"Bzenec, Přívoz",48.936826,17.29381,695,0,U16917N185,2\,,610,e40b9657-fede-4642-a593-cc38f2631696,1925138.12307562,6264148.87818455
U16900Z2,"Bzenec, Doubrava",48.961533,17.287165,695,0,U16900N183,2\,,611,e0c97704-8b8b-4ab8-9e9c-7417ccca474e,1924398.4050593,6268336.8676621
U16907Z2,"Bzenec, ZŠ",48.970537,17.279883,695,0,U16907N182,2\,,612,7e11671c-8e53-4103-9da3-dd789f69cd2f,1923587.77652734,6269863.61719851
U16901Z2,"Bzenec, náměstí",48.973247,17.265269,695,0,U16901N181,2\,,613,6385728b-cba1-49ee-a142-a504ccc0b64c,1921960.95348889,6270323.18819753
U16903Z2,"Bzenec, Nový Svět",48.972955,17.251683,695,0,U16903N180,2\,,614,0f12c67a-143d-4e93-a334-3b54f90ebb54,1920448.56688697,6270273.6686455
U16822Z2,"Vracov, obecní úřad",48.979768,17.21934,685,0,U16822N179,2\,,615,4559e1b9-a6c1-411e-a19a-8f4a221635c0,1916848.16059625,6271429.14390426
U16823Z2,"Vracov, Slokov",48.98178,17.208207,685,0,U16823N178,2\,,616,8f2a2cb5-05b2-4c59-bab4-090fd5b31b77,1915608.84070525,6271770.40649517
U16820Z2,"Vlkoš, Tesko",48.987175,17.172433,685,0,U16820N177,2\,,617,7ac1653e-0eaf-4891-a576-70d6b2dd88be,1911626.49724161,6272685.5399457
U16817Z2,Vlkoš,48.990744,17.162083,685,0,U16817N128,2\,,618,94c9e110-2ba1-4ddd-a817-75914cc58cbd,1910474.3405119,6273290.99037572
U1106Z2,Faměrovo náměstí,49.176954,16.640512,101,0,U1106N189,2\,,619,ac961c15-884b-4c18-90c5-da214fe406b8,1852413.32237936,6304940.29768296
U1662Z2,Textilní kombinát,49.18111,16.63826,100,0,U1662N190,2\,,620,d3582ccb-36ba-4a40-be6e-a7a3f24b5421,1852162.63088609,6305648.03136708
U1563Z2,Psychiatrická nemocnice,49.185039,16.636538,100,0,U1563N191,2\,,621,5e50cece-714a-4cf0-bae3-c2c7df182eb5,1851970.93872295,6306317.16341511
U1207Z2,Jiránkova,49.187576,16.633483,100,0,U1207N192,2\,,622,7e77878c-a7b1-442c-a8fd-3de7406b1dca,1851630.85767857,6306749.25782117
U1144Z2,Hladíkova,49.187865,16.625741,100,0,U1144N193,1\,,623,85357bdd-dfd3-4edb-8fb3-ead2e5d640a6,1850769.02218085,6306798.48085999
U1011Z3,Autobusové nádraží,49.186909,16.617974,100,0,U1011N2,2\,,624,92b48c48-ed97-4a4d-a908-9b5b66bc62e9,1849904.40369586,6306635.65418893
U1716Z3,Úzká,49.189244,16.613733,100,0,U1716N194,1\,4,625,160af5de-1ded-430c-957d-53edb383f760,1849432.29773541,6307033.35876564
U16439Z1,Násedlovice,49.011075,16.95703,652,0,U16439N195,2\,,626,d0c8ea00-bebf-4dd3-a8b2-64d0b3ba1af1,1887647.94496626,6276740.79876169
U16438Z1,"Násedlovice, u hřiště",49.009217,16.95822,652,0,U16438N196,2\,,627,e117dba4-1acd-4906-a863-2e80564ac77d,1887780.41516031,6276425.4707958
U16437Z1,"Násedlovice, mlýn",49.007262,16.966958,652,0,U16437N197,2\,,628,633415fe-a59e-45b5-98c8-a084e5ebb65f,1888753.12487086,6276093.69330983
U1716Z4,Úzká,49.189107,16.613266,100,0,U1716N194,1\,5,629,08ee4d63-e189-456f-b1f0-d78cb6899515,1849380.3115332,6307010.02397452
U1463Z2,Opuštěná,49.185245,16.613024,100,0,U1463N198,1\,,630,a3cb1266-15ea-44bd-9566-eb9412a322f1,1849353.37221643,6306352.24790508
U1011Z4,Autobusové nádraží,49.186887,16.618479,100,0,U1011N2,2\,,631,016dc221-8191-4454-a694-9422bd93858f,1849960.62003871,6306631.90716868
U1144Z1,Hladíkova,49.187682,16.625353,100,0,U1144N193,1\,,632,0555913e-0837-43fc-a40a-fabd1ba97a7e,1850725.83021842,6306767.31191275
U1207Z1,Jiránkova,49.187495,16.633494,100,0,U1207N192,2\,,633,7db61482-bb08-4c52-a244-320d46ecd562,1851632.08219297,6306735.46179613
U1563Z1,Psychiatrická nemocnice,49.185089,16.636321,100,0,U1563N191,2\,,634,a53492e7-5603-485e-84c7-c8843dcd963e,1851946.78239344,6306325.67905459
U1662Z1,Textilní kombinát,49.182496,16.637572,100,0,U1662N190,2\,,635,2ee54b7f-6547-4b0a-9b5b-4facbf2aa428,1852086.04307643,6305884.06933848
U1106Z1,Faměrovo náměstí,49.176788,16.64042,101,0,U1106N189,2\,,636,a2df8125-7b6f-490c-bb89-1fd21e6e15e3,1852403.08098621,6304912.03043991
U30305Z1,Osová Bítýška,49.329893,16.168305,355,0,U30305N450,2\,,637,8c1a5731-2762-466f-b523-d2d2626a0330,1799847.47959034,6331023.84668764
U16608Z1,"Kyjov, aut. st.",49.006785,17.124327,675,0,U16608N105,2\,6,638,a87cba47-be71-434b-a007-2d6e75c4dca0,1906271.36181751,6276012.74497428
U16437Z2,"Násedlovice, mlýn",49.007317,16.966767,652,0,U16437N197,2\,,639,0ca1decb-4f2c-4dca-aa9b-3ddf5e269f9c,1888731.86284812,6276103.02702522
U16438Z2,"Násedlovice, u hřiště",49.00918,16.958217,652,0,U16438N196,2\,,640,f8b018dc-b30a-4518-9a31-b7f09c1b2018,1887780.08120184,6276419.19151017
U16439Z2,Násedlovice,49.012059,16.958993,652,0,U16439N195,2\,,641,19084624-c70d-4eb6-b329-ba966d01db22,1887866.46512669,6276907.80176192
U16608Z14,"Kyjov, aut. st.",49.006415,17.124242,675,0,U16608N105,2\,5,642,759d7d56-cec5-49c4-b849-ecece9e1dc88,1906261.89966079,6275949.95539477
U16619Z2,"Sobůlky, ZD",49.017682,17.080587,662,0,U16619N199,2\,,643,8b1ce5c5-93d4-442b-bd73-2114b58ca6c6,1901402.24729021,6277862.1921962
U16620Z2,Sobůlky,49.02127,17.078505,662,0,U16620N200,2\,,644,60e6d651-e2b8-44da-bd3c-3c24cf8e64cc,1901170.48011038,6278471.23891938
U16531Z2,Věteřov,49.028368,17.056237,662,0,U16531N201,2\,,645,986225c5-c2e2-453a-8a6e-76c5e5a020fd,1898691.61768939,6279676.22158049
U16526Z2,"Dražůvky, rozcestí",49.039952,17.022837,652,0,U16526N202,2\,,646,0e3b8ad0-5063-45a2-8402-9e430da131f6,1894973.5466969,6281643.13339131
U16901Z3,"Bzenec, náměstí",48.97255,17.266377,695,0,U16901N181,2\,,647,bc341d03-9a88-4906-a3b0-5d6a883d2a1b,1922084.29548469,6270204.98618531
U16527Z3,Dražůvky,49.031967,17.020073,652,0,U16527N114,2\,,648,3274d2b8-b255-4ba9-8669-7d341e03315c,1894665.85962434,6280287.26677201
U16526Z1,"Dražůvky, rozcestí",49.039815,17.022695,652,0,U16526N202,2\,,649,466634e3-57a9-41f2-9256-7e19d1ab2813,1894957.7393292,6281619.86872242
U16531Z1,Věteřov,49.02866,17.055782,662,0,U16531N201,2\,,650,bcf537d1-adf5-4d72-9674-f831492819a7,1898640.96732108,6279725.79625855
U16620Z1,Sobůlky,49.021408,17.078633,662,0,U16620N200,2\,,651,9358fe62-7bb5-45d0-a14a-a7b31bb4ac2e,1901184.7290052,6278494.66467018
U16619Z1,"Sobůlky, ZD",49.017792,17.080708,662,0,U16619N199,2\,,652,14aabac0-2a47-4a8a-88fb-38eb86653967,1901415.71694859,6277880.86354483
U17423Z7,"Vyškov, Autobusové nádraží",49.275942,16.991855,740,0,U17423N203,2\,1,653,8322aeef-1328-4e59-8a67-e5f7c1f7efed,1891524.64623314,6321813.34378491
U17429Z2,"Vyškov, garáže ČSAD",49.270982,16.988643,740,0,U17429N204,2\,,654,e8d2305e-3afd-4641-b90d-17eecb3a09c3,1891167.08802871,6320967.07953109
U17435Z2,"Vyškov, Nouzka",49.266523,16.980263,740,0,U17435N205,2\,,655,ab5ac487-3b74-4a38-a625-27dd5b0d4202,1890234.23069586,6320206.36741631
U17428Z2,"Vyškov, Drnovská Bioveta",49.25374,16.95539,740,0,U17428N206,2\,,656,3ad61328-c667-437d-95ce-86c4bc28800f,1887465.38100136,6318025.94933044
U17328Z2,"Luleč, rozcestí",49.246772,16.941783,730,0,U17328N207,2\,,657,e3fb4b83-2924-4228-8de8-e47964b051c0,1885950.65669014,6316837.64347532
U17344Z2,"Tučapy, rozcestí",49.227053,16.915262,730,0,U17344N208,2\,,658,300cce9d-c586-4b65-89cc-b69a3e3dcdad,1882998.35247481,6313475.72146503
U17311Z4,"Komořany, EDP",49.219687,16.904328,730,0,U17311N209,2\,,659,d2cce1c1-da4b-4711-b424-fb5cfcfa72d5,1881781.18516248,6312220.22525215
U17331Z2,"Rousínov, Čechyně, rozcestí",49.207575,16.892772,730,0,U17331N210,2\,,660,b9587f94-739e-4a10-acdf-da65e153d4f7,1880494.77712687,6310156.20488242
U17335Z3,"Rousínov, autobusová stanice",49.203074,16.884769,730,0,U17335N211,2\,1,661,a266e045-98c1-4569-8a9b-4e69239b3183,1879603.88724205,6309389.31296527
U1696Z5,ÚAN Zvonařka,49.185364,16.616151,100,0,U1696N32,2\,28,662,68452d40-a3c1-4d3a-a395-26bd98c3cb07,1849701.46826414,6306372.51522554
U17335Z2,"Rousínov, autobusová stanice",49.20291,16.88497,730,0,U17335N211,2\,5,663,00d15d87-ed9d-4b79-8dc4-487a1f031fe7,1879626.2624597,6309361.37154294
U17331Z1,"Rousínov, Čechyně, rozcestí",49.207062,16.891572,730,0,U17331N210,2\,,664,84bf63b9-0eab-4331-8548-f366b216dfef,1880361.19373792,6310068.79510263
U15528Z51,"Velké Pavlovice, autobusové nádraží",48.897843,16.81716,555,0,U15528N363,2\,,665,b282196f-f935-45f8-a68f-d1a10a94ee6d,1872077.68778901,6257545.23166763
U17311Z3,"Komořany, EDP",49.220008,16.905058,730,0,U17311N209,2\,,666,be9942ba-ae99-41da-8020-6d253f6b4884,1881862.44839076,6312274.93412508
U17344Z1,"Tučapy, rozcestí",49.227308,16.915917,730,0,U17344N208,2\,,667,ebdfce1e-3631-4461-b09c-1757127852ac,1883071.26674128,6313519.18823443
U17328Z1,"Luleč, rozcestí",49.248113,16.944733,730,0,U17328N207,2\,,668,2ca277bf-1e7c-4988-837d-b809189b92bb,1886279.04918798,6317066.3213372
U17428Z1,"Vyškov, Drnovská Bioveta",49.254302,16.95682,740,0,U17428N206,2\,,669,40c383d2-5c0c-4dbd-b998-da24ed63c80f,1887624.5678732,6318121.79875995
U17435Z1,"Vyškov, Nouzka",49.266527,16.980512,740,0,U17435N205,2\,,670,0513bb59-05c6-4047-a958-ff98d97ea17f,1890261.94924907,6320207.04979153
U17429Z1,"Vyškov, garáže ČSAD",49.271332,16.989108,740,0,U17429N204,2\,,671,bdd84118-a19e-46b0-87ff-66eb95f002e2,1891218.85159193,6321026.79296838
U17423Z21,"Vyškov, Autobusové nádraží",49.275819,16.992078,740,0,U17423N203,2\,,672,42a60ee9-9577-4e90-9f69-039e045ab474,1891549.47047959,6321792.35676739
U17335Z6,"Rousínov, autobusová stanice",49.202819,16.885074,730,0,U17335N211,2\,7,673,ce9a6200-d084-46c6-adab-5c2655210750,1879637.83968674,6309345.86750102
U17343Z1,"Tučapy, obecní úřad",49.232287,16.917902,730,0,U17343N212,2\,,674,27d2f052-c344-4a21-9617-b4bb6b7a5fc5,1883292.2359305,6314367.94317121
U17317Z1,Nemojany,49.246498,16.915268,730,0,U17317N213,2\,,675,e200d1d8-888a-4ced-8482-9d7a5d429d77,1882999.02039176,6316790.91960552
U17316Z1,"Luleč, rozc. k žel. st.",49.250822,16.921027,730,0,U17316N214,2\,,676,836e6283-d448-4082-aabf-e7091be01c2e,1883640.10933923,6317528.30026111
U17315Z1,"Luleč, obecní úřad",49.253993,16.929762,730,0,U17315N215,2\,,677,24bc401d-3480-4b1e-8639-9525c90b595c,1884612.48509131,6318069.09849373
U17314Z1,"Luleč, kamenolom",49.261913,16.937098,730,0,U17314N216,2\,,678,35ee1863-1008-408d-8957-2762aac7dd82,1885429.12487577,6319419.96674938
U17305Z1,"Drnovice, Na vrchu",49.270722,16.950341,730,0,U17305N217,2\,,679,f59befa9-c291-4f71-ba0d-07130ddf057d,1886903.32889235,6320922.72125191
U17304Z2,Drnovice,49.276472,16.952117,730,0,U17304N218,2\,,680,0e2554ae-5fce-4cba-8133-ae0b5cc5019e,1887101.032308,6321903.7762476
U17434Z2,"Vyškov, nemocnice",49.276242,16.98279,740,0,U17434N219,2\,,681,6fa86217-46e4-4853-8f6b-3588da1a1b57,1890515.5350491,6321864.53185199
